latitude,longitude,town,postcode,epci,county,images/0,images/1,images/2,images/3,images/4,images/5,images/6,images/7,images/8,images/9,images/10,images/11,images/12,images/13
45.6754,0.24273,Ruelle-sur-Touvre,16600,CA du Grand Angoulême,Charente,https://api.v2.clean2gether.com/uploads/5fe3052c_c85a_4df6_a5d1_6d127057279a_jpg_1a3a062922.jpg,,,,,,,,,,,,,
45.59092,0.27279,Dirac,16410,CA du Grand Angoulême,Charente,https://api.v2.clean2gether.com/uploads/0291_B2_E8_6_B06_4_C7_E_8350_7756_A0_B07728_jpg_846c4b6d2c.jpg,,,,,,,,,,,,,
45.54825,0.12207,Mouthiers-sur-Boëme,16440,CA du Grand Angoulême,Charente,https://api.v2.clean2gether.com/uploads/ca6a7e33_7238_4a67_a833_972e3aff6a9d_jpg_65d561f868.jpg,https://api.v2.clean2gether.com/uploads/8f9351ea_404c_41fe_9f79_7f6ec25a54dd_jpg_2c7fda7ca8.jpg,,,,,,,,,,,,
45.64459,0.11869,Angoulême,16000,CA du Grand Angoulême,Charente,https://api.v2.clean2gether.com/uploads/1_D0_BDF_99_560_E_4_E18_B086_0_FB_69_F6_CCCD_6_jpg_e1b0acfb55.jpg,,,,,,,,,,,,,
45.70302,-0.30443,Boutiers-Saint-Trojan,16100,CA du Grand Cognac,Charente,https://api.v2.clean2gether.com/uploads/E23_F170_F_AAF_9_437_F_983_C_F3_FE_3_F8_EB_9_C6_jpg_2711778c10.jpg,,,,,,,,,,,,,
45.63751,0.14252,Angoulême,16000,CA du Grand Angoulême,Charente,https://api.v2.clean2gether.com/uploads/e3ad4490_f297_45ff_b455_fa66ce882984_jpg_9ffddb7edb.jpg,,,,,,,,,,,,,
45.64074,0.19529,Soyaux,16800,CA du Grand Angoulême,Charente,https://api.v2.clean2gether.com/uploads/212ef854_898b_42d0_83a2_e64b35889154_jpg_5172e5bbb8.jpg,https://api.v2.clean2gether.com/uploads/3c0506ce_2d6c_4355_8736_2c406eafa0c2_jpg_952ecec497.jpg,,,,,,,,,,,,
45.6417,-0.1382,Saint-Même-les-Carrières,16720,CA du Grand Cognac,Charente,https://api.v2.clean2gether.com/uploads/C6_FC_6_B2_E_8_CC_9_4_C2_D_AE_8_A_55_CADD_653_C47_jpg_9a4f616544.jpg,https://api.v2.clean2gether.com/uploads/A88_E0_A63_52_A1_481_E_81_BC_65_D4_CE_6_EC_943_jpg_f6e8d22f4b.jpg,,,,,,,,,,,,
45.79096,0.3016,La Rochette,16110,CC La Rochefoucauld - Porte du Périgord,Charente,https://api.v2.clean2gether.com/uploads/4_E9979_A9_C236_43_C3_8072_5_EE_7_D3_E84_A01_jpg_795ddb7496.jpg,,,,,,,,,,,,,
45.73976,0.24252,Brie,16590,CA du Grand Angoulême,Charente,https://api.v2.clean2gether.com/uploads/D4_DB_8520_D9_D2_44_C9_A5_F8_7_AE_5656872_BE_jpg_925a2f4855.jpg,,,,,,,,,,,,,
45.68457,0.23062,Ruelle-sur-Touvre,16600,CA du Grand Angoulême,Charente,https://api.v2.clean2gether.com/uploads/7_DBF_1139_6_B65_4_D33_8_B29_7095_E0138_CA_0_jpg_f8e2bf259d.jpg,https://api.v2.clean2gether.com/uploads/1_C2752_EB_FBB_1_4_FED_8_DE_0_B7_E5175_D464_E_jpg_0cbac624c7.jpg,https://api.v2.clean2gether.com/uploads/686_FA_54_D_DC_40_4_BFB_BD_83_95882098_AA_06_jpg_ffb28b92ca.jpg,,,,,,,,,,,
45.72674,0.22393,Champniers,16430,CA du Grand Angoulême,Charente,https://api.v2.clean2gether.com/uploads/F725_D91_B_7697_4442_9_CEA_05_B4_C7832_E28_jpg_4652b7cbc2.jpg,,,,,,,,,,,,,
45.27346,-0.5716,Saint-Aubin-de-Blaye,33820,CC de l'Estuaire,Gironde,https://api.v2.clean2gether.com/uploads/fc8ccbdf_81c5_4653_9c01_09cfdd86a9e4_jpg_2b12aa926c.jpg,https://api.v2.clean2gether.com/uploads/593c8bf1_d207_42d4_8701_6c64ca48cbc7_jpg_45d39d4f66.jpg,,,,,,,,,,,,
45.64063,0.1934,Soyaux,16800,CA du Grand Angoulême,Charente,https://api.v2.clean2gether.com/uploads/336e13f2_2be3_434b_a323_0d9010a597de_jpg_e28a244870.jpg,,,,,,,,,,,,,
45.67585,0.13639,Saint-Yrieix-sur-Charente,16710,CA du Grand Angoulême,Charente,https://api.v2.clean2gether.com/uploads/52ee9f01_831e_4543_9f93_6b05410a5d6d_jpg_bafe05e4cb.jpg,https://api.v2.clean2gether.com/uploads/4077bd10_3ab6_447d_afce_f8aac7ecf6b7_jpg_0c093c53a5.jpg,,,,,,,,,,,,
45.69194,0.02475,Asnières-sur-Nouère,16290,CA du Grand Angoulême,Charente,https://api.v2.clean2gether.com/uploads/b2c85810_c55a_4fa5_b555_b22f1453975e_jpg_9af32593fc.jpg,,,,,,,,,,,,,
45.62375,0.1296,La Couronne,16400,CA du Grand Angoulême,Charente,https://api.v2.clean2gether.com/uploads/e380ad8d_6215_426a_abd5_6910da05b148_jpg_892222b227.jpg,,,,,,,,,,,,,
45.32927,-0.5001,Courpignac,17130,CC de la Haute Saintonge,Charente-Maritime,https://api.v2.clean2gether.com/uploads/29246b9b_e192_4d00_bb2a_55718cad1e8d_jpg_4e5f0b324c.jpg,https://api.v2.clean2gether.com/uploads/c25de881_57c2_47bc_bb22_898be47824d4_jpg_755cff25fe.jpg,,,,,,,,,,,,
45.57575,-0.31472,Cierzac,17520,CC de la Haute Saintonge,Charente-Maritime,https://api.v2.clean2gether.com/uploads/4647f423_840a_4e59_a7f0_75746e2f4f23_jpg_74c41af354.jpg,,,,,,,,,,,,,
45.5872,-0.33126,Salles-d'Angles,16130,CC de la Haute Saintonge,Charente,https://api.v2.clean2gether.com/uploads/ce222621_6b24_4016_ad89_8b91bb44fef1_jpg_ddc99f01f3.jpg,,,,,,,,,,,,,
45.64026,0.13609,Angoulême,16000,CA du Grand Angoulême,Charente,https://api.v2.clean2gether.com/uploads/571b3162_f57f_4928_97d2_7e793285a36d_jpg_3be612d17b.jpg,,,,,,,,,,,,,
45.65353,-1.1246,Saint-Palais-sur-Mer,17420,CA Royan Atlantique,,https://api.v2.clean2gether.com/uploads/2ba46485_1ea3_4cbe_a156_620c8d0a2ec5_jpg_ee1c9b1e56.jpg,https://api.v2.clean2gether.com/uploads/906d0d6d_375e_466d_9534_293ed879611b_jpg_c40493ea8e.jpg,,,,,,,,,,,,
45.64625,0.1117,Angoulême,16000,CA du Grand Angoulême,Charente,https://api.v2.clean2gether.com/uploads/FA_9_C5_FF_6_E126_44_D8_9880_015_FC_5_C20247_jpg_2d7dcef873.jpg,,,,,,,,,,,,,
45.64735,0.11632,Angoulême,16000,CA du Grand Angoulême,Charente,https://api.v2.clean2gether.com/uploads/F009_D7_A1_460_D_4767_B9_F8_F5_CFC_9_EBE_0_CC_jpg_edb01a6f97.jpg,,,,,,,,,,,,,
45.65433,0.2547,Touvre,16600,CA du Grand Angoulême,Charente,https://api.v2.clean2gether.com/uploads/75c53bb3_9118_4c2f_a74a_8b17fbc68797_jpg_a3ff806bfa.jpg,https://api.v2.clean2gether.com/uploads/9d686904_d529_417d_94db_d46925c9bee3_jpg_54763ea087.jpg,https://api.v2.clean2gether.com/uploads/c400a94f_0772_44cc_a422_efbace9a3c36_jpg_aeb7cea25a.jpg,,,,,,,,,,,
45.79641,-0.03003,Saint-Cybardeaux,16170,CC du Rouillacais,Charente,https://api.v2.clean2gether.com/uploads/076546aa_68c2_4446_95b0_cd007cc4dd36_jpg_23404d036a.jpg,,,,,,,,,,,,,
45.70727,-0.30167,Boutiers-Saint-Trojan,16100,CA du Grand Cognac,Charente,https://api.v2.clean2gether.com/uploads/7665_E07_F_3_EC_1_4_F23_B12_F_6507_F54_B577_B_jpg_a595d5164c.jpg,,,,,,,,,,,,,
45.79591,-0.03015,Saint-Cybardeaux,16170,CC du Rouillacais,Charente,https://api.v2.clean2gether.com/uploads/c00108dc_e039_46e3_8980_485cc3b3e167_jpg_dfb5260ca2.jpg,,,,,,,,,,,,,
45.53599,-0.16887,Touzac,16120,CA du Grand Cognac,Charente,https://api.v2.clean2gether.com/uploads/99a770ea_a6a7_4cf4_9fa1_380269a56f5d_jpg_6e8d704113.jpg,,,,,,,,,,,,,
45.46957,-0.20206,Montchaude,16300,CC des 4B Sud Charente,Charente,https://api.v2.clean2gether.com/uploads/adab7072_c863_4530_b29b_ae9c2da90258_jpg_43be9523ce.jpg,,,,,,,,,,,,,
45.58883,-0.34212,Saint-Martial-sur-Né,16130,CC de la Haute Saintonge,Charente-Maritime,https://api.v2.clean2gether.com/uploads/2a06dfef_64d2_4bee_a7b9_e17cf47deaec_jpg_205b21fee8.jpg,,,,,,,,,,,,,
45.62105,0.40377,Saint-Germain-de-Montbron,16380,CC La Rochefoucauld - Porte du Périgord,Charente,https://api.v2.clean2gether.com/uploads/6566471_A_7125_45_EA_A4_F7_EB_7_CB_0_EE_8_FB_9_jpg_969bd8981c.jpg,,,,,,,,,,,,,
45.65401,0.22463,Magnac-sur-Touvre,16600,CA du Grand Angoulême,Charente,https://api.v2.clean2gether.com/uploads/99890705_d747_404d_b346_cbf0452b7fed_jpg_4cb639c18d.jpg,,,,,,,,,,,,,
45.67235,0.00522,Hiersac,16290,CA du Grand Cognac,Charente,https://api.v2.clean2gether.com/uploads/1fd40ba6_55ff_4b3f_aada_14cd3d00f5ed_jpg_54fd026650.jpg,,,,,,,,,,,,,
45.6408,0.24232,Magnac-sur-Touvre,16600,CA du Grand Angoulême,Charente,https://api.v2.clean2gether.com/uploads/0_C3_C4_AD_3_376_B_4_A15_BC_59_64490_E06_A236_jpg_2ff86441d8.jpg,,,,,,,,,,,,,
45.32977,1.34855,Chabrignac,19350,CA du Bassin de Brive,Corrèze,https://api.v2.clean2gether.com/uploads/be733ba6_6a62_4973_837f_03b686b00428_jpg_178bd75a0b.jpg,,,,,,,,,,,,,
45.79051,0.30149,La Rochette,16110,CC La Rochefoucauld - Porte du Périgord,Charente,https://api.v2.clean2gether.com/uploads/f36f37b3_c23c_4af0_8805_f1881a7aa143_jpg_2f00a9941d.jpg,,,,,,,,,,,,,
45.70096,-0.30341,Cognac,16100,CA du Grand Cognac,Charente,https://api.v2.clean2gether.com/uploads/36e979ab_3317_4350_a2b6_d1506aa05f5a_jpg_3c3d17a10f.jpg,,,,,,,,,,,,,
45.68827,0.11822,Saint-Yrieix-sur-Charente,16710,CA du Grand Angoulême,Charente,https://api.v2.clean2gether.com/uploads/D64_C3_F8_F_6990_493_B_A47_A_CB_0_A7301_AC_17_jpg_5d0c85f1ee.jpg,,,,,,,,,,,,,
45.72287,-0.2841,Nercillac,16200,CA du Grand Cognac,Charente,https://api.v2.clean2gether.com/uploads/fd349ed9_75f9_4ebb_b9a6_31552f71e36a_jpg_99df8d6681.jpg,https://api.v2.clean2gether.com/uploads/fb3bfec1_9f81_474a_a353_2847252f894a_jpg_a40ffafe4f.jpg,,,,,,,,,,,,
45.68879,0.11724,Saint-Yrieix-sur-Charente,16710,CA du Grand Angoulême,Charente,https://api.v2.clean2gether.com/uploads/E1716_D75_875_A_4_A80_A05_E_3_E730_D54_B955_jpg_417354db62.jpg,,,,,,,,,,,,,
44.83232,-0.76185,Martignas-sur-Jalle,33127,Bordeaux Métropole,Gironde,https://api.v2.clean2gether.com/uploads/44d0cfbb_cd21_4a2b_b93b_f13c72453874_jpg_8e95b9b65d.jpg,,,,,,,,,,,,,
45.64963,-0.00748,Champmillon,16290,CA du Grand Cognac,Charente,https://api.v2.clean2gether.com/uploads/DF_6_D767_C_3_BE_3_4414_8_DA_1_BBB_9_DCC_24905_jpg_344527f659.jpg,,,,,,,,,,,,,
44.83352,-0.76529,Martignas-sur-Jalle,33127,Bordeaux Métropole,Gironde,https://api.v2.clean2gether.com/uploads/41b6dd06_26be_42de_a098_6ef16d75f513_jpg_55f407d098.jpg,,,,,,,,,,,,,
45.67391,0.12587,Saint-Yrieix-sur-Charente,16710,CA du Grand Angoulême,Charente,https://api.v2.clean2gether.com/uploads/eb8ea105_cdca_4a5b_8e34_9bc893ac5b5e_jpg_bfcee88ed2.jpg,https://api.v2.clean2gether.com/uploads/8020ac33_eefe_4209_9001_266e5e4826c1_jpg_2a51322873.jpg,,,,,,,,,,,,
45.65189,-0.3505,Gimeux,16130,CA du Grand Cognac,Charente,https://api.v2.clean2gether.com/uploads/0bb68d05_85b9_43b2_adf0_a75bc21a8aeb_jpg_28fa611b09.jpg,,,,,,,,,,,,,
45.53692,0.23953,Torsac,16410,CC Lavalette Tude Dronne,Charente,https://api.v2.clean2gether.com/uploads/fb7a6352_6e8a_4138_bc8f_ef887e2a466e_jpg_5e64746157.jpg,https://api.v2.clean2gether.com/uploads/c7456a17_34d0_488c_92aa_d167f53563f8_jpg_b1f0f57506.jpg,,,,,,,,,,,,
45.67285,0.17542,Gond-Pontouvre,16160,CA du Grand Angoulême,Charente,https://api.v2.clean2gether.com/uploads/ddf273eb_fac7_4562_ae31_8b35ee9fb44a_jpg_7634593efe.jpg,,,,,,,,,,,,,
44.82322,-0.57749,Bordeaux,33000,Bordeaux Métropole,Gironde,https://api.v2.clean2gether.com/uploads/fe2a59d8_80f8_4bc8_ad0a_ead4ee6a7a53_jpg_fc52e10172.jpg,,,,,,,,,,,,,
45.67657,0.24159,Ruelle-sur-Touvre,16600,CA du Grand Angoulême,Charente,https://api.v2.clean2gether.com/uploads/46195065_204f_4218_8b93_a62e3f3a026f_jpg_5bb7ce4a04.jpg,,,,,,,,,,,,,
45.45101,-0.12972,Salles-de-Barbezieux,16300,CC des 4B Sud Charente,Charente,https://api.v2.clean2gether.com/uploads/8ce0326a_fc68_4604_b022_bd057bc16df3_jpg_d837d34616.jpg,https://api.v2.clean2gether.com/uploads/61044de9_5ad1_4f57_a4c0_5fee39f0ef43_jpg_662f615b5d.jpg,,,,,,,,,,,,
45.72112,-0.34535,Cherves-Richemont,16370,CA du Grand Cognac,Charente,https://api.v2.clean2gether.com/uploads/9ccc28c0_0e1f_4741_8cef_98e6b4622026_jpg_1a27edec35.jpg,,,,,,,,,,,,,
45.66607,0.28531,Mornac,16600,CA du Grand Angoulême,Charente,https://api.v2.clean2gether.com/uploads/16_E39_D3_E_E132_4_A36_AFFA_CCF_71_CC_28_A61_jpg_3c558b607e.jpg,,,,,,,,,,,,,
45.66245,0.37757,Chazelles,16380,CC La Rochefoucauld - Porte du Périgord,Charente,https://api.v2.clean2gether.com/uploads/6_F78_C68_C_A167_4_A07_83_CB_2997_A48_CABDA_jpg_670e00d582.jpg,,,,,,,,,,,,,
45.44415,0.10105,Pérignac,16250,CC des 4B Sud Charente,Charente,https://api.v2.clean2gether.com/uploads/99_DA_3102_B868_4662_9337_C8977_BF_57083_jpg_2284161199.jpg,https://api.v2.clean2gether.com/uploads/E7_BB_8_A9_F_C013_4947_A685_A2_A18_C6_E329_F_jpg_1bc818936e.jpg,,,,,,,,,,,,
45.6897,0.25819,Ruelle-sur-Touvre,16600,CA du Grand Angoulême,Charente,https://api.v2.clean2gether.com/uploads/4357b10c_b0bd_485c_81ea_4a345063b366_jpg_02ea72a946.jpg,,,,,,,,,,,,,
45.69408,0.27606,Mornac,16600,CA du Grand Angoulême,Charente,https://api.v2.clean2gether.com/uploads/1164e795_d07e_4859_85b0_bdd44340232d_jpg_c3a5e480c6.jpg,,,,,,,,,,,,,
45.44653,0.10519,Pérignac,16250,CC des 4B Sud Charente,Charente,https://api.v2.clean2gether.com/uploads/15_D4388_F_7_A97_4_F19_8760_C4_CAB_3_FB_89_EF_jpg_2d740cc8be.jpg,https://api.v2.clean2gether.com/uploads/EFF_98_DB_0_71_D4_4117_9_C10_2168187_E2711_jpg_16bcf5db1a.jpg,https://api.v2.clean2gether.com/uploads/A68_FFEB_8_84_DC_4_EB_1_B259_0420_BC_104_E7_B_jpg_73169dbe35.jpg,,,,,,,,,,,
44.66948,-0.45719,Castres-Gironde,33640,CC de Montesquieu,Gironde,https://api.v2.clean2gether.com/uploads/6ba2fc17_e9d2_4fb5_9514_8c79c499bb0f_jpg_f18fb5dbe2.jpg,,,,,,,,,,,,,
45.7609,-0.20071,Houlette,16200,CA du Grand Cognac,Charente,https://api.v2.clean2gether.com/uploads/5435c713_3b7e_4c5e_ba68_2120457e7a7a_jpg_83738177d3.jpg,https://api.v2.clean2gether.com/uploads/31cc087c_2599_4a5e_a3e6_370660ca3a04_jpg_7a1a8ea729.jpg,,,,,,,,,,,,
45.99296,-1.37973,Saint-Georges-d'Oléron,17190,CC de l'Ile d'Oléron,Charente-Maritime,https://api.v2.clean2gether.com/uploads/0312688b_cf22_4a08_a2ef_7e390f629853_jpg_0ae19ba3f5.jpg,,,,,,,,,,,,,
45.95744,0.57539,Ambernac,16490,CC de Charente Limousine,Charente,https://api.v2.clean2gether.com/uploads/a4cd6e03_8940_4277_a8fd_b3dea72a4327_jpg_f236044d9f.jpg,,,,,,,,,,,,,
45.70541,0.30737,Mornac,16600,CA du Grand Angoulême,Charente,https://api.v2.clean2gether.com/uploads/4a55b300_9b7e_406b_a6dc_bccf54688234_jpg_e220fd960f.jpg,,,,,,,,,,,,,
45.72661,-0.38679,Louzac-Saint-André,16100,CA du Grand Cognac,Charente,https://api.v2.clean2gether.com/uploads/C3_F2177_F_A0_AD_4_E82_8_FDB_0069232195_AA_jpg_10756fe0a7.jpg,,,,,,,,,,,,,
45.71854,-0.39341,Louzac-Saint-André,16100,CA du Grand Cognac,Charente,https://api.v2.clean2gether.com/uploads/A62_C5_FB_5_8_E72_4_B17_97_EF_28_FA_7_D4950_C2_jpg_eaa36ab122.jpg,https://api.v2.clean2gether.com/uploads/4_B700527_6_B3_D_4412_BE_72_E6719_D12_FBE_1_jpg_5c3323b6ff.jpg,https://api.v2.clean2gether.com/uploads/CE_668_A46_26_B8_45_AE_B8_C5_0620_FB_7_B8010_jpg_325f0c9c4e.jpg,,,,,,,,,,,
45.68938,0.1533,Saint-Yrieix-sur-Charente,16710,CA du Grand Angoulême,Charente,https://api.v2.clean2gether.com/uploads/3dd47b5d_2dcf_467c_938b_91696889a102_jpg_a59ffb6437.jpg,,,,,,,,,,,,,
45.68947,0.15279,Saint-Yrieix-sur-Charente,16710,CA du Grand Angoulême,Charente,https://api.v2.clean2gether.com/uploads/af4d1b2a_0112_4d7f_97a9_e3a85d7d0beb_jpg_4670f4386b.jpg,,,,,,,,,,,,,
45.23529,-0.00933,Rioux-Martin,16210,CC Lavalette Tude Dronne,Charente,https://api.v2.clean2gether.com/uploads/505_A7599_8595_4558_99_A8_91_DCE_942_FA_57_jpg_d8e982d380.jpg,,,,,,,,,,,,,
45.80698,0.19586,Tourriers,16560,CC Coeur de Charente,Charente,https://api.v2.clean2gether.com/uploads/c14b56eb_2e20_402f_889d_a9a9207c95f8_jpg_58fee7f9db.jpg,,,,,,,,,,,,,
45.38915,-0.18041,Le Tâtre,16360,CC des 4B Sud Charente,Charente,https://api.v2.clean2gether.com/uploads/48515694_8e7f_4362_a9a5_c701beefa9d8_jpg_39ce1795ef.jpg,,,,,,,,,,,,,
45.68476,0.13306,Saint-Yrieix-sur-Charente,16710,CA du Grand Angoulême,Charente,https://api.v2.clean2gether.com/uploads/8_EC_5_B4_F7_01_D6_496_D_912_F_42_AE_1390_B05_D_jpg_14d808381b.jpg,,,,,,,,,,,,,
45.68387,0.10775,Saint-Yrieix-sur-Charente,16710,CA du Grand Angoulême,Charente,https://api.v2.clean2gether.com/uploads/f33a00d1_84a2_4043_ace3_d9ad74154057_jpg_1b00c6e803.jpg,,,,,,,,,,,,,
45.85214,0.29384,Saint-Amant-de-Bonnieure,16230,CC Coeur de Charente,Charente,https://api.v2.clean2gether.com/uploads/a3af271d_0f87_49f1_960f_0600d495e241_jpg_ebe786b33e.jpg,,,,,,,,,,,,,
45.64832,0.13597,Angoulême,16000,CA du Grand Angoulême,Charente,https://api.v2.clean2gether.com/uploads/8a3a6262_ee8e_4bbb_830a_fb3d37d7fa8a_jpg_87f421cb50.jpg,,,,,,,,,,,,,
45.76383,0.0288,Saint-Genis-d'Hiersac,16570,CC du Rouillacais,Charente,https://api.v2.clean2gether.com/uploads/6e112f9e_53ce_45dc_bc9f_28dc5218e498_jpg_e34db04454.jpg,,,,,,,,,,,,,
45.69571,0.08801,Fléac,16730,CA du Grand Angoulême,Charente,https://api.v2.clean2gether.com/uploads/38727_C7_F_BA_1_E_4_FC_2_A7_E9_A510_EC_5_C2822_jpg_5d9fcaccee.jpg,,,,,,,,,,,,,
45.61664,0.13379,La Couronne,16400,CA du Grand Angoulême,Charente,https://api.v2.clean2gether.com/uploads/94b28eef_f82e_4f17_8b6b_9b21a9e21064_jpg_b16905adb7.jpg,,,,,,,,,,,,,
45.67396,-0.1686,Gondeville,16200,CA du Grand Cognac,Charente,https://api.v2.clean2gether.com/uploads/d3c63024_de64_4c40_b475_feed09bf7b6b_jpg_976ee3f1ea.jpg,https://api.v2.clean2gether.com/uploads/1b9ba9dc_d932_4840_b31a_f0996e14466f_jpg_7d448bab03.jpg,https://api.v2.clean2gether.com/uploads/1c73f04e_a5ff_41d3_9165_1775495c77ec_jpg_116a14d752.jpg,,,,,,,,,,,
45.71975,-0.17291,Les Métairies,16200,CA du Grand Cognac,Charente,https://api.v2.clean2gether.com/uploads/0_D6_C09_FE_B27_B_40_E3_ADD_0_6_AEB_9_EEF_0_A16_jpg_2b64176d5e.jpg,,,,,,,,,,,,,
45.61763,0.13112,La Couronne,16400,CA du Grand Angoulême,Charente,https://api.v2.clean2gether.com/uploads/4890f60b_6908_45c6_b6e8_f4a3256f9ed1_jpg_048f9684f3.jpg,,,,,,,,,,,,,
46.05569,0.34956,Le Bouchage,16350,CC de Charente Limousine,Charente,https://api.v2.clean2gether.com/uploads/f9a490b3_a6dc_4199_9731_9ece00638cdc_jpg_7c91b2d2a9.jpg,,,,,,,,,,,,,
45.61652,0.13319,La Couronne,16400,CA du Grand Angoulême,Charente,https://api.v2.clean2gether.com/uploads/511d3a33_8b42_4140_b355_3224f2ee6ea4_jpg_8ca070224f.jpg,,,,,,,,,,,,,
46.14066,-0.91295,Saint-Christophe,17220,CA de La Rochelle,Charente-Maritime,https://api.v2.clean2gether.com/uploads/1c48760c_38ce_4404_ab3f_31d671fbf933_jpg_472410f675.jpg,,,,,,,,,,,,,
45.57506,0.22372,Torsac,16410,CA du Grand Angoulême,Charente,https://api.v2.clean2gether.com/uploads/A2_F03_F25_03_EC_49_B2_918_B_FCE_2192_DA_007_jpg_34aef76578.jpg,https://api.v2.clean2gether.com/uploads/0_F47_C5_AD_6051_49_A6_A900_546702_CE_5883_jpg_f9c00f66b6.jpg,https://api.v2.clean2gether.com/uploads/F0455463_9_B3_C_4060_8_E6_B_C1_F1_FC_817239_jpg_bf10d4baf6.jpg,https://api.v2.clean2gether.com/uploads/5_C02_C2_AA_9_DD_8_407_F_B2_E9_F30_DFCCD_78_ED_jpg_4cd747e669.jpg,,,,,,,,,,
45.92334,0.49688,Saint-Laurent-de-Céris,16450,CC de Charente Limousine,Charente,https://api.v2.clean2gether.com/uploads/D3_F10_FDD_753_B_4_E39_A4_A1_0_D5174_AD_2_AB_7_jpg_d2fb9b00f5.jpg,,,,,,,,,,,,,
45.67524,0.21965,Ruelle-sur-Touvre,16600,CA du Grand Angoulême,Charente,https://api.v2.clean2gether.com/uploads/c7376f98_42e6_40b3_9f7e_7f387ef43a12_jpg_0fed4ac8be.jpg,,,,,,,,,,,,,
45.92628,0.48196,Saint-Laurent-de-Céris,16450,CC de Charente Limousine,Charente,https://api.v2.clean2gether.com/uploads/874cee64_78b7_458d_965c_65299c853107_jpg_ab30cbc99d.jpg,,,,,,,,,,,,,
45.93202,0.4303,Parzac,16450,CC de Charente Limousine,Charente,https://api.v2.clean2gether.com/uploads/77943f04_7ef2_4688_aff9_ecf1a101be9d_jpg_4155937086.jpg,https://api.v2.clean2gether.com/uploads/33fae8a8_ea97_4442_b174_9ab2fb3d14a5_jpg_357615423c.jpg,,,,,,,,,,,,
45.66065,0.20924,L'Isle-d'Espagnac,16340,CA du Grand Angoulême,Charente,https://api.v2.clean2gether.com/uploads/3be1c9ab_6466_4337_88f9_da067bef961d_jpg_b0e18a61a3.jpg,,,,,,,,,,,,,
45.64468,0.18155,Soyaux,16800,CA du Grand Angoulême,Charente,https://api.v2.clean2gether.com/uploads/A9_BBAF_1_C_8_A10_40_A6_80_DB_59_DF_39_C06_F03_jpg_81aab63dbe.jpg,,,,,,,,,,,,,
45.75721,-0.41443,Saint-Sulpice-de-Cognac,16370,CA du Grand Cognac,Charente,https://api.v2.clean2gether.com/uploads/8965_E98_B_5_D2_B_415_A_95_B1_ACC_0_B3_A167_C7_jpg_3056a96782.jpg,,,,,,,,,,,,,
45.61719,0.07339,La Couronne,16400,CA du Grand Angoulême,Charente,https://api.v2.clean2gether.com/uploads/97634_EF_3_C2_BE_4382_A11_C_6902_A575_F906_jpg_53c6831ad7.jpg,https://api.v2.clean2gether.com/uploads/ADC_2_AC_73_B18_B_49_BC_AA_7_B_751_F393826_EE_jpg_d5dc33560e.jpg,,,,,,,,,,,,
45.61807,-0.21903,Segonzac,16130,CA du Grand Cognac,Charente,https://api.v2.clean2gether.com/uploads/2429fea7_5c8b_4ad8_863f_6b25fe1e80ea_jpg_78cf173359.jpg,https://api.v2.clean2gether.com/uploads/9eb67d4b_fb84_434e_9709_e4ea1ad2bbc3_jpg_32add370fb.jpg,https://api.v2.clean2gether.com/uploads/33e6e1d2_eb68_4d1c_b2a1_8462fcd9308f_jpg_3ede08a2b6.jpg,,,,,,,,,,,
45.2286,0.17086,Saint-Privat-des-Prés,24410,CC du Pays de Saint Aulaye,Dordogne,https://api.v2.clean2gether.com/uploads/031_AB_6_B5_98_E9_4_A88_BEA_5_85286_F9_CDA_22_jpg_93622a71bf.jpg,,,,,,,,,,,,,
45.22896,0.17152,Saint-Privat-des-Prés,24410,CC du Pays de Saint Aulaye,Dordogne,https://api.v2.clean2gether.com/uploads/3_B0_AF_96_F_8_B1_C_409_F_ABA_4_259_EAECF_64_D2_jpg_1825fbb75c.jpg,,,,,,,,,,,,,
45.6459,0.11088,Saint-Michel,16470,CA du Grand Angoulême,Charente,https://api.v2.clean2gether.com/uploads/eb54078e_2c4c_4ac4_9ee0_0022ba48b591_jpg_2078b50aa7.jpg,,,,,,,,,,,,,
45.6744,0.26245,Mornac,16600,CA du Grand Angoulême,Charente,https://api.v2.clean2gether.com/uploads/1_C6_DAEA_5_76_F2_4620_9191_D876_C2_BC_3_A96_jpg_3db0dd6148.jpg,,,,,,,,,,,,,
45.3486,-0.0391,Passirac,16480,CC des 4B Sud Charente,Charente,https://api.v2.clean2gether.com/uploads/FB_46_F23_A_4769_4470_8_F0_E_C5_B2_AE_7_B1767_jpg_33f3c40569.jpg,,,,,,,,,,,,,
45.67519,-0.27444,Gensac-la-Pallue,16130,CA du Grand Cognac,Charente,https://api.v2.clean2gether.com/uploads/5bb36e9c_c45c_4d78_beab_e46cdf1e3af5_jpg_082f6f7254.jpg,,,,,,,,,,,,,
45.6149,0.13355,La Couronne,16400,CA du Grand Angoulême,Charente,https://api.v2.clean2gether.com/uploads/40a9daad_6c7c_4039_9582_50c6d25f2a30_jpg_3022a15180.jpg,,,,,,,,,,,,,
45.61593,0.1324,La Couronne,16400,CA du Grand Angoulême,Charente,https://api.v2.clean2gether.com/uploads/6dd61fbc_87e6_484f_b0dc_310f81baba3a_jpg_dd5b0beed3.jpg,,,,,,,,,,,,,
45.64754,0.49061,Montbron,16220,CC La Rochefoucauld - Porte du Périgord,Charente,https://api.v2.clean2gether.com/uploads/1899128c_384b_4d3d_9505_45da3b36031b_jpg_4ade982ee5.jpg,https://api.v2.clean2gether.com/uploads/f4759b22_c5b9_41d4_914e_3e730a2c564e_jpg_9b7da80a70.jpg,https://api.v2.clean2gether.com/uploads/a6e5747c_9d6a_457c_8391_25df32ea51cd_jpg_48c824fc4c.jpg,,,,,,,,,,,
45.64206,0.1883,Soyaux,16800,CA du Grand Angoulême,Charente,https://api.v2.clean2gether.com/uploads/34f05542_3be1_4926_a8f8_3751877326a8_jpg_6b9eadf0eb.jpg,,,,,,,,,,,,,
45.64436,-0.20408,Mainxe,16200,CA du Grand Cognac,Charente,https://api.v2.clean2gether.com/uploads/bcf213bb_e3ec_490d_803a_ad733086ab1a_jpg_ef78f7a593.jpg,,,,,,,,,,,,,
44.82664,-0.7911,Martignas-sur-Jalle,33127,Bordeaux Métropole,Gironde,https://api.v2.clean2gether.com/uploads/06681312_57c3_40bb_be76_a7f03b549949_jpg_b195859e04.jpg,,,,,,,,,,,,,
45.63392,-0.38442,Gimeux,16130,CA du Grand Cognac,Charente,https://api.v2.clean2gether.com/uploads/61aec05a_7252_4578_b837_fe6f72867105_jpg_3be63433e6.jpg,,,,,,,,,,,,,
45.69012,-0.20786,Chassors,16200,CA du Grand Cognac,Charente,https://api.v2.clean2gether.com/uploads/ece299fb_7a69_4497_a9c4_2dd3ed9a3ab3_jpg_e4659f725c.jpg,https://api.v2.clean2gether.com/uploads/22cec36b_2cc2_4b1e_a5e2_107bea2d8649_jpg_7d44ca8881.jpg,https://api.v2.clean2gether.com/uploads/60007e43_1a70_4f2a_b3e1_73d1dc3c8307_jpg_f2cc059180.jpg,,,,,,,,,,,
44.84755,0.85446,Le Buisson-de-Cadouin,24480,CC des Bastides Dordogne-Périgord,Dordogne,https://api.v2.clean2gether.com/uploads/615ce5bb_5df9_470a_8adb_b8cc34e623a3_jpg_a3e996c1c3.jpg,https://api.v2.clean2gether.com/uploads/aba49bd9_60c9_4746_b077_c1036d8422c0_jpg_ae09e99285.jpg,,,,,,,,,,,,
45.58828,0.10774,La Couronne,16400,CA du Grand Angoulême,Charente,https://api.v2.clean2gether.com/uploads/633_BA_440_61_E5_4853_99_F0_1_E64_B1_C96304_jpg_2606bdc462.jpg,,,,,,,,,,,,,
46.02534,0.13514,La Faye,16700,CC Val de Charente,Charente,https://api.v2.clean2gether.com/uploads/20d6db01_2e59_497a_9993_07d61692e370_jpg_9e8be62295.jpg,,,,,,,,,,,,,
45.67467,0.11115,Fléac,16730,CA du Grand Angoulême,Charente,https://api.v2.clean2gether.com/uploads/98fdd3ad_4758_48d4_86dc_2093868cae94_jpg_349e5e750a.jpg,https://api.v2.clean2gether.com/uploads/7fb600e8_95ce_4dbe_9d82_4d048f08c959_jpg_2cd1fe784a.jpg,,,,,,,,,,,,
44.82174,0.80742,Molières,24480,CC des Bastides Dordogne-Périgord,Dordogne,https://api.v2.clean2gether.com/uploads/1b69021b_2bb9_4ea3_b7fb_519355f70d2b_jpg_14e0efa992.jpg,https://api.v2.clean2gether.com/uploads/3693a856_9642_407f_832d_b740b5441684_jpg_0757571086.jpg,https://api.v2.clean2gether.com/uploads/3df16d22_92cc_421f_af2c_4767f246e149_jpg_e93a59b5ef.jpg,https://api.v2.clean2gether.com/uploads/4f6e029f_0945_4484_9ecb_bcd491f070ad_jpg_9fc7cc756b.jpg,https://api.v2.clean2gether.com/uploads/201c3e6a_8eec_4a0a_a774_02ee4258c00b_jpg_2ce3f87fb2.jpg,https://api.v2.clean2gether.com/uploads/26bcf634_655f_462e_a61d_fee2f746e890_jpg_073e8f2083.jpg,https://api.v2.clean2gether.com/uploads/432b31a1_a97f_48ec_aac3_84eedc375eed_jpg_df16220250.jpg,,,,,,,
44.84824,0.85096,Le Buisson-de-Cadouin,24480,CC des Bastides Dordogne-Périgord,Dordogne,https://api.v2.clean2gether.com/uploads/3786ed94_f36e_4999_a509_c60f8a231d0b_jpg_488fdf0900.jpg,https://api.v2.clean2gether.com/uploads/bb2ed39a_26cc_4b03_80da_a0f33d19baf4_jpg_9eb23d03d3.jpg,https://api.v2.clean2gether.com/uploads/2dd1bdf4_3ef5_4959_833b_ab87ea15c293_jpg_1408537eae.jpg,https://api.v2.clean2gether.com/uploads/49cab32f_b9c4_4ff8_b2df_20b0f38a1412_jpg_0f1efe5b0c.jpg,https://api.v2.clean2gether.com/uploads/d980d757_05c2_48f1_b325_ca5d98128ab1_jpg_4b541066f4.jpg,https://api.v2.clean2gether.com/uploads/969babd2_fda5_45f4_b484_5db80e30ff63_jpg_13fee5e551.jpg,https://api.v2.clean2gether.com/uploads/004cfd6c_5e59_4166_9e85_64ff81550201_jpg_baec0893c2.jpg,https://api.v2.clean2gether.com/uploads/5a5f84ea_6184_47e8_bc43_399a2728fad3_jpg_e71e40794f.jpg,https://api.v2.clean2gether.com/uploads/1cb3d86e_4de6_4ffd_b685_c0ebf5680c3f_jpg_68f24d16eb.jpg,https://api.v2.clean2gether.com/uploads/aed5d8b2_0a4b_4730_9eec_f253a92da1d8_jpg_9425b3776d.jpg,https://api.v2.clean2gether.com/uploads/dcb349cd_e90e_4492_a2d1_968547fab1c6_jpg_9ca6fff282.jpg,https://api.v2.clean2gether.com/uploads/e5a1c68a_52ae_47ef_879f_99d136baf52e_jpg_c974e7fb9c.jpg,https://api.v2.clean2gether.com/uploads/4ee13475_e8c3_4428_be6f_58073ffbde77_jpg_9d7baffb8f.jpg,https://api.v2.clean2gether.com/uploads/3a4e7ab9_7fb3_415f_8368_ecd24451d2c8_jpg_6081323430.jpg
45.58929,-0.07304,Châteauneuf-sur-Charente,16120,CA du Grand Cognac,Charente,https://api.v2.clean2gether.com/uploads/f2a5c88c_ce72_42c3_b3ab_658c6a531ac1_jpg_bfa73fed79.jpg,,,,,,,,,,,,,
45.41643,-0.19515,Reignac,16360,CC des 4B Sud Charente,Charente,https://api.v2.clean2gether.com/uploads/AE_0_C1_E50_5_D92_4933_AA_00_10_F6_D4182_CDF_jpg_6d50a36ae9.jpg,https://api.v2.clean2gether.com/uploads/52_DB_72_F1_1356_483_A_B8_A6_B22725_C78910_jpg_09b487f2e4.jpg,,,,,,,,,,,,
45.67718,0.06177,Fléac,16730,CA du Grand Angoulême,Charente,https://api.v2.clean2gether.com/uploads/9d265fdb_ba4b_4093_b079_000bdc8a61b9_jpg_901054e7b0.jpg,,,,,,,,,,,,,
45.63908,0.234,Magnac-sur-Touvre,16600,CA du Grand Angoulême,Charente,https://api.v2.clean2gether.com/uploads/0d6644ac_3cfa_4aa7_8c5e_06980979f5fb_jpg_a6fee450b4.jpg,https://api.v2.clean2gether.com/uploads/e974b818_5d7c_4d42_8b02_db10d4572a3a_jpg_dc5b6cabe7.jpg,,,,,,,,,,,,
45.66862,0.28358,Mornac,16600,CA du Grand Angoulême,Charente,https://api.v2.clean2gether.com/uploads/FFF_37_AEA_D310_4_F88_964_D_7_F2_DCA_9927_AC_jpg_79a87765cd.jpg,,,,,,,,,,,,,
45.58382,0.35821,Vouzan,16410,CA du Grand Angoulême,Charente,https://api.v2.clean2gether.com/uploads/FA_16_F2_D0_3_CE_6_49_D1_B5_CA_4_A8_F0504_BD_5_F_jpg_6b48bc35e3.jpg,https://api.v2.clean2gether.com/uploads/8_F009733_38_C8_4920_AF_89_5_DA_30_A369_E89_jpg_fef9f085a4.jpg,https://api.v2.clean2gether.com/uploads/9_C1_A6_FA_3_7_AD_9_4_E2_A_B73_A_46127_EC_5_E43_D_jpg_d621cedcb0.jpg,,,,,,,,,,,
45.67447,0.31069,Mornac,16110,CA du Grand Angoulême,Charente,https://api.v2.clean2gether.com/uploads/7113_B7_AE_BC_99_4_CEC_AC_23_2338_AF_544757_jpg_382c6890d4.jpg,,,,,,,,,,,,,
45.692,0.02412,Douzat,16290,CC du Rouillacais,Charente,https://api.v2.clean2gether.com/uploads/5_D9_C0923_33_E1_438_F_8327_F824_CEE_7971_E_jpg_6564b58d87.jpg,,,,,,,,,,,,,
45.63698,0.22454,Soyaux,16800,CA du Grand Angoulême,Charente,https://api.v2.clean2gether.com/uploads/b0c33c59_5179_47fc_adbf_cff2a4a9f8b9_jpg_d8796c2e31.jpg,,,,,,,,,,,,,
45.7099,0.15854,Champniers,16430,CA du Grand Angoulême,Charente,https://api.v2.clean2gether.com/uploads/5948e262_a108_4b0b_b4f4_cdb763fc9557_jpg_87f6288ab2.jpg,,,,,,,,,,,,,
45.7919,-0.13814,Sonneville,16170,CC du Rouillacais,Charente,https://api.v2.clean2gether.com/uploads/1a3460e6_a032_4453_8c3f_0aa123d7f5ff_jpg_612d1e2736.jpg,,,,,,,,,,,,,
45.93499,0.46498,Saint-Laurent-de-Céris,16450,CC de Charente Limousine,Charente,https://api.v2.clean2gether.com/uploads/D6573378_156_E_47_CE_B9_EF_7_FBD_2_E0_D374_B_jpg_3a98543d1e.jpg,,,,,,,,,,,,,
45.64783,0.1904,Soyaux,16800,CA du Grand Angoulême,Charente,https://api.v2.clean2gether.com/uploads/90a51d4a_07fa_4aed_b76e_b22711065059_jpg_299eb5034e.jpg,,,,,,,,,,,,,
45.7893,-0.13601,Sonneville,16170,CC du Rouillacais,Charente,https://api.v2.clean2gether.com/uploads/738ef923_5a24_4c06_aecb_60d701ebfcc9_jpg_427adeecfa.jpg,,,,,,,,,,,,,
45.64761,0.18938,Soyaux,16800,CA du Grand Angoulême,Charente,https://api.v2.clean2gether.com/uploads/3dfdf4a4_5fa7_4f17_8a99_53905f05f910_jpg_c2acfad31e.jpg,,,,,,,,,,,,,
45.85536,0.38301,La Tâche,16260,CC Coeur de Charente,Charente,https://api.v2.clean2gether.com/uploads/63c52b4b_4273_4dae_a146_04aa93f003f3_jpg_feb5a06b73.jpg,,,,,,,,,,,,,
45.67444,-0.2966,Châteaubernard,16100,CA du Grand Cognac,Charente,https://api.v2.clean2gether.com/uploads/8_FC_20837_45_D9_4750_8576_23_FD_5_A3_E45_B9_jpg_9ceee6552c.jpg,,,,,,,,,,,,,
44.84776,-0.7604,Martignas-sur-Jalle,33127,Bordeaux Métropole,Gironde,https://api.v2.clean2gether.com/uploads/1d1addea_d4d9_4fea_ba0c_ba07b4681f05_jpg_12e14e05db.jpg,https://api.v2.clean2gether.com/uploads/cd2b5035_e146_4287_9851_bbad5955883e_jpg_6d8ea5abc7.jpg,https://api.v2.clean2gether.com/uploads/5a84b7b0_60be_4ef2_8b2a_5568b3d119d2_jpg_6c0eab8563.jpg,,,,,,,,,,,
45.70554,-0.34756,Cognac,16100,CA du Grand Cognac,Charente,https://api.v2.clean2gether.com/uploads/0f1bb684_28a0_4b1c_95f7_897b8f7094d5_jpg_0cea8e6e0c.jpg,https://api.v2.clean2gether.com/uploads/5d88df93_2c68_4b75_b310_0073a76cf07c_jpg_7815d3ccbb.jpg,https://api.v2.clean2gether.com/uploads/ad8a235e_d2d1_4f3a_b972_6ca7db2e085a_jpg_62040f726f.jpg,,,,,,,,,,,
45.47079,0.24147,Ronsenac,16320,CC Lavalette Tude Dronne,Charente,https://api.v2.clean2gether.com/uploads/1eec9db3_c292_464a_88b5_0e1d1caef933_jpg_9f4d146a19.jpg,,,,,,,,,,,,,
44.82932,-0.777,Martignas-sur-Jalle,33127,Bordeaux Métropole,Gironde,https://api.v2.clean2gether.com/uploads/a5071201_8fe2_40d5_b32d_8916a1011e5f_jpg_79b932e6ef.jpg,,,,,,,,,,,,,
45.55569,-0.00415,Roullet-Saint-Estèphe,16440,CA du Grand Angoulême,Charente,https://api.v2.clean2gether.com/uploads/E05_FAC_8_F_5_F8_D_4784_B0_E9_6_B36_A9_FBBF_52_jpg_c36817aeda.jpg,,,,,,,,,,,,,
45.94924,0.85945,Brigueuil,16420,CC de Charente Limousine,Charente,https://api.v2.clean2gether.com/uploads/f62054f9_b8c7_4d21_9401_ca10b9c005dd_jpg_9eeb88bd14.jpg,,,,,,,,,,,,,
45.94492,0.85851,Brigueuil,16420,CC de Charente Limousine,Charente,https://api.v2.clean2gether.com/uploads/d64fbcfe_a005_4e28_832e_f506849b45f9_jpg_986b723ed5.jpg,https://api.v2.clean2gether.com/uploads/6bf58a06_46c7_4fe9_9eb2_6dea01d61258_jpg_fd62c5d21c.jpg,,,,,,,,,,,,
45.56214,0.01937,Roullet-Saint-Estèphe,16440,CA du Grand Angoulême,Charente,https://api.v2.clean2gether.com/uploads/4801_D8_E3_F955_42_E0_96_BB_2_E8_E3745_B4_D3_jpg_15c4bb46b4.jpg,,,,,,,,,,,,,
45.66409,0.17092,Gond-Pontouvre,16160,CA du Grand Angoulême,Charente,https://api.v2.clean2gether.com/uploads/5a23cc06_329c_4671_967d_cecb82851572_jpg_71e5f3503d.jpg,,,,,,,,,,,,,
45.64493,0.11378,Angoulême,16000,CA du Grand Angoulême,Charente,https://api.v2.clean2gether.com/uploads/dd59e539_eac2_40ec_9343_8a4a1edbe547_jpg_42d5175374.jpg,,,,,,,,,,,,,
45.64507,0.1133,Angoulême,16000,CA du Grand Angoulême,Charente,https://api.v2.clean2gether.com/uploads/0ec5d0b6_6b85_4af1_bed4_cbc60b5f3339_jpg_3182c49a47.jpg,https://api.v2.clean2gether.com/uploads/dea84d20_338e_43ca_aa78_23faffa83a34_jpg_779d441103.jpg,,,,,,,,,,,,
45.6456,0.11534,Angoulême,16000,CA du Grand Angoulême,Charente,https://api.v2.clean2gether.com/uploads/c4adae2d_b582_4bd8_a024_b4f514d13392_jpg_6e7e90acef.jpg,,,,,,,,,,,,,
45.8433,0.15021,Cellettes,16230,CC Coeur de Charente,Charente,https://api.v2.clean2gether.com/uploads/8_E8_EE_0_F5_8377_4818_B1_BA_CC_61052_EC_381_jpg_2267229d37.jpg,https://api.v2.clean2gether.com/uploads/168_F96_D5_050_C_472_F_8_E81_98512_D89_D822_jpg_52eacec8c7.jpg,,,,,,,,,,,,
45.68799,-0.07466,Mérignac,16200,CA du Grand Cognac,Charente,https://api.v2.clean2gether.com/uploads/8_A087_C1_A_39_F4_4_CCC_86_A2_4_E29_DC_90956_B_jpg_7db78909cd.jpg,,,,,,,,,,,,,
45.68868,-0.07495,Mérignac,16200,CA du Grand Cognac,Charente,https://api.v2.clean2gether.com/uploads/8_A087_C1_A_39_F4_4_CCC_86_A2_4_E29_DC_90956_B_jpg_7ca0f5d044.jpg,,,,,,,,,,,,,
45.06443,-0.53972,Lansac,33710,CC du Grand Cubzaguais,Gironde,https://api.v2.clean2gether.com/uploads/7fa8d01f_0890_488e_89ee_fbc8b62ec68e_jpg_e14b7fab2f.jpg,,,,,,,,,,,,,
45.73648,-0.25355,Réparsac,16200,CA du Grand Cognac,Charente,https://api.v2.clean2gether.com/uploads/7b472f3e_1091_4fb0_b059_5dd855e4450b_jpg_712665b236.jpg,https://api.v2.clean2gether.com/uploads/dd681d02_eaca_40f6_97ff_9700329bb718_jpg_229d551a62.jpg,https://api.v2.clean2gether.com/uploads/55dec792_d06e_4889_8006_f422e521b47a_jpg_fff9198fb0.jpg,https://api.v2.clean2gether.com/uploads/8db56d52_1693_4172_963d_0ae9a4630220_jpg_daffe499bd.jpg,https://api.v2.clean2gether.com/uploads/eb337ca3_90bc_4915_8abe_78f449c19b3f_jpg_cfe6b5bd45.jpg,,,,,,,,,
45.68845,-0.07612,Mérignac,16200,CA du Grand Cognac,Charente,https://api.v2.clean2gether.com/uploads/4_B89_E638_1_AE_0_4711_A344_8_E1041_C701_A0_jpg_7b05f2d1e2.jpg,,,,,,,,,,,,,
45.71537,0.26397,Brie,16590,CA du Grand Angoulême,Charente,https://api.v2.clean2gether.com/uploads/6_D437_DBE_C306_4334_A8_A8_F4_FD_9_B48_CF_71_jpg_78323bde54.jpg,https://api.v2.clean2gether.com/uploads/2_AC_8_B3_F2_EA_7_C_4080_AD_2_F_07_AC_9505_FC_27_jpg_c43bda3a80.jpg,https://api.v2.clean2gether.com/uploads/0646_E307_77_D4_4_DD_9_9_D05_B8_A47052972_E_jpg_e7b2cbdc9e.jpg,https://api.v2.clean2gether.com/uploads/EAA_8769_A_35_B4_47_D3_886_F_675_E6_D9447_A4_jpg_ba2c2362b3.jpg,https://api.v2.clean2gether.com/uploads/788_C7023_3_ED_9_49_DB_9_DD_0_4_C9_BDEEC_30_D6_jpg_7738ad5bed.jpg,,,,,,,,,
45.6204,-0.11128,Graves-Saint-Amant,16120,CA du Grand Cognac,Charente,https://api.v2.clean2gether.com/uploads/b6b34f2d_8493_4836_9d47_3f5eadabd391_jpg_2cef53677d.jpg,,,,,,,,,,,,,
45.71409,0.26496,Brie,16590,CA du Grand Angoulême,Charente,https://api.v2.clean2gether.com/uploads/509_E492_F_4908_4_C6_D_8_C4_C_787_E522_AF_5_C7_jpg_ae607a9451.jpg,https://api.v2.clean2gether.com/uploads/4_C7544_AF_1_FF_3_459_E_98_B9_966_C9_CD_15_B50_jpg_23b4e51ad2.jpg,https://api.v2.clean2gether.com/uploads/B1_CA_0_CA_3_65_FA_49_FB_A819_1_C1_A147_A6_C89_jpg_56f3fff77f.jpg,https://api.v2.clean2gether.com/uploads/E64_B530_C_038_D_47_A5_A288_CE_5_C6_BF_306_C3_jpg_47d2c6b61c.jpg,https://api.v2.clean2gether.com/uploads/863718_DC_0_AFD_4_C8_B_9_EF_1_FCEFB_9870599_jpg_33966c298b.jpg,,,,,,,,,
45.79037,0.19132,Tourriers,16560,CC Coeur de Charente,Charente,https://api.v2.clean2gether.com/uploads/f229229d_b15c_45d5_90eb_a7fabeead27d_jpg_647ef9ee96.jpg,,,,,,,,,,,,,
45.73788,0.38999,La Rochefoucauld-en-Angoumois,16110,CC La Rochefoucauld - Porte du Périgord,Charente,https://api.v2.clean2gether.com/uploads/8c33df43_d23e_44a1_b958_5b9e63bfd7ee_jpg_d4cd1a29d1.jpg,,,,,,,,,,,,,
45.71514,0.35782,Saint-Projet-Saint-Constant,16110,CC La Rochefoucauld - Porte du Périgord,Charente,https://api.v2.clean2gether.com/uploads/abde6539_7c5e_41eb_b20a_4699207bd165_jpg_0b14615f2c.jpg,,,,,,,,,,,,,
45.62557,0.35608,Chazelles,16380,CC La Rochefoucauld - Porte du Périgord,Charente,https://api.v2.clean2gether.com/uploads/C1_A7_CB_45_D650_4699_88_D1_5_C69602_FF_541_jpg_27db28066f.jpg,,,,,,,,,,,,,
45.56921,0.22071,Torsac,16410,CA du Grand Angoulême,Charente,https://api.v2.clean2gether.com/uploads/EC_943811_41_C0_4_D5_D_9_BEF_737_FEE_601_F7_A_jpg_adbbc08e60.jpg,,,,,,,,,,,,,
45.9631,0.2026,Verteuil-sur-Charente,16510,CC Val de Charente,Charente,https://api.v2.clean2gether.com/uploads/ff2c7d48_42b6_49a4_bc8d_a352bdcd038b_jpg_e0203a6b67.jpg,,,,,,,,,,,,,
45.71635,-0.395,Louzac-Saint-André,16100,CA du Grand Cognac,Charente,https://api.v2.clean2gether.com/uploads/9_B9_A233_C_D07_C_4_E9_B_8_F78_3_EF_8424_E9_F09_jpg_8f1963db22.jpg,,,,,,,,,,,,,
45.48058,-0.1625,Barbezieux-Saint-Hilaire,16300,CC des 4B Sud Charente,Charente,https://api.v2.clean2gether.com/uploads/29fcb623_0903_4c3c_b80e_423e29e5e97c_jpg_d4168e489c.jpg,,,,,,,,,,,,,
45.63943,-0.37054,Gimeux,16130,CA du Grand Cognac,Charente,https://api.v2.clean2gether.com/uploads/3cb5316c_efbd_4e16_96c1_6250fb994916_jpg_0e838bed34.jpg,,,,,,,,,,,,,
45.67239,-0.25608,Bourg-Charente,16200,CA du Grand Cognac,Charente,https://api.v2.clean2gether.com/uploads/d250bc59_a721_4f48_ba7f_4e77743a7e1e_jpg_34d2fea9ca.jpg,,,,,,,,,,,,,
45.68359,-0.30311,Châteaubernard,16100,CA du Grand Cognac,Charente,https://api.v2.clean2gether.com/uploads/ab9e8891_6692_4d88_8f3a_a60b87cef19e_jpg_378adf1d81.jpg,https://api.v2.clean2gether.com/uploads/37a8c179_8665_4141_be72_612e2f757cf9_jpg_0d99680b55.jpg,,,,,,,,,,,,
45.43542,0.20763,Ronsenac,16320,CC Lavalette Tude Dronne,Charente,https://api.v2.clean2gether.com/uploads/cd88b899_126a_44b0_8fa9_81ca9669d14e_jpg_3859f3259d.jpg,,,,,,,,,,,,,
45.93766,0.87673,Brigueuil,16420,CC de Charente Limousine,Charente,https://api.v2.clean2gether.com/uploads/22a32eb1_9b03_4e81_9dc3_2334423159c2_jpg_812e65cdce.jpg,https://api.v2.clean2gether.com/uploads/53cf30a5_64a1_4201_b315_c4c670f37486_jpg_188413ca28.jpg,https://api.v2.clean2gether.com/uploads/046de213_5a3c_431c_b6b8_4b0d930e98cb_jpg_427ea7998f.jpg,,,,,,,,,,,
45.72502,0.2724,Brie,16590,CA du Grand Angoulême,Charente,https://api.v2.clean2gether.com/uploads/8649_CAFC_E9_B8_4_C6_F_A541_C2892_DD_6_F7_C0_jpg_57817788ad.jpg,,,,,,,,,,,,,
45.71756,0.2742,Brie,16590,CA du Grand Angoulême,Charente,https://api.v2.clean2gether.com/uploads/6_D01_DECA_AAE_5_4379_8_EB_6_E8_E2_B1_EAEBCC_jpg_96412fbb8e.jpg,,,,,,,,,,,,,
45.72494,0.27178,Brie,16590,CA du Grand Angoulême,Charente,https://api.v2.clean2gether.com/uploads/CEE_39_E3_B_B36_B_451_B_BA_51_603_C6_E733_D20_jpg_19ae8707f2.jpg,,,,,,,,,,,,,
45.69021,0.0236,Douzat,16290,CC du Rouillacais,Charente,https://api.v2.clean2gether.com/uploads/143b629d_85b8_44ab_810b_049a36248012_jpg_be9dd0b18f.jpg,,,,,,,,,,,,,
45.9133,0.20378,Lichères,16460,CC Coeur de Charente,Charente,https://api.v2.clean2gether.com/uploads/7a25f561_ac46_47b3_885e_779df23ee76a_jpg_6acff02c67.jpg,https://api.v2.clean2gether.com/uploads/f9c2f3e2_1938_4db4_a57a_e944c07972bd_jpg_983874c148.jpg,https://api.v2.clean2gether.com/uploads/1367b8a8_cde6_4dc0_aef7_e14f9e9e29ff_jpg_f12f6fb5c1.jpg,,,,,,,,,,,
45.89185,-0.0095,Aigre,16140,CC Coeur de Charente,Charente,https://api.v2.clean2gether.com/uploads/64b2af24_879b_4bdc_91e2_e07f6a3534a1_jpg_a1da949955.jpg,,,,,,,,,,,,,
45.61188,0.24922,Dirac,16410,CA du Grand Angoulême,Charente,https://api.v2.clean2gether.com/uploads/c56ef252_31cc_43e2_a3ee_380eff65a385_jpg_ae5b31e6a1.jpg,https://api.v2.clean2gether.com/uploads/d0c8ef42_2ad2_40da_b6c2_067f2eafeb40_jpg_240fd478f0.jpg,,,,,,,,,,,,
45.89474,-0.00688,Aigre,16140,CC Coeur de Charente,Charente,https://api.v2.clean2gether.com/uploads/e70db01f_dc17_4299_8667_0e9f9261a78e_jpg_52a5be73d1.jpg,,,,,,,,,,,,,
45.89508,-0.0065,Aigre,16140,CC Coeur de Charente,Charente,https://api.v2.clean2gether.com/uploads/ce15eaab_917a_412e_85b3_7cf7d7c5b1d0_jpg_f3ef4734f3.jpg,,,,,,,,,,,,,
45.52155,0.09316,Plassac-Rouffiac,16250,CA du Grand Angoulême,Charente,https://api.v2.clean2gether.com/uploads/c3936373_43ea_4607_a459_723e08903181_jpg_8f11a60518.jpg,https://api.v2.clean2gether.com/uploads/8869e52f_6a5d_4d62_8779_be5b823874a9_jpg_829e7da4a3.jpg,https://api.v2.clean2gether.com/uploads/ccd44068_4e33_46df_a2bd_2d9332a43e74_jpg_20fe398ccf.jpg,https://api.v2.clean2gether.com/uploads/44ec4e0b_f099_4e13_b549_c28bd641aace_jpg_a2459f3b0b.jpg,,,,,,,,,,
45.67426,0.19585,L'Isle-d'Espagnac,16600,CA du Grand Angoulême,Charente,https://api.v2.clean2gether.com/uploads/B14513_A3_031_F_4226_8556_3_E65_E05792_B1_jpg_f57919f820.jpg,https://api.v2.clean2gether.com/uploads/9255_C9_ED_B3_D7_4_DDF_B21_A_6_D1650_DE_9_E39_jpg_58240ccfbf.jpg,,,,,,,,,,,,
45.67634,0.22198,Ruelle-sur-Touvre,16600,CA du Grand Angoulême,Charente,https://api.v2.clean2gether.com/uploads/D2577363_9737_496_F_942_A_AAF_2139_A1517_jpg_d406740b8c.jpg,,,,,,,,,,,,,
45.03305,-0.41325,Aubie-et-Espessas,33240,CC du Grand Cubzaguais,Gironde,https://api.v2.clean2gether.com/uploads/5_D0813_E8_8_AD_8_4_F03_81_C9_C7_D13_C8_FE_76_F_jpg_66fe317aaf.jpg,https://api.v2.clean2gether.com/uploads/FE_1_BBDE_0_FACE_4_A3_B_AB_11_DA_8_C7_E6_B8_B9_E_jpg_5bbfe31819.jpg,https://api.v2.clean2gether.com/uploads/1_BF_3_B70_B_B205_41_B9_803_E_6_D78_C14_A60_AD_jpg_29c244c52a.jpg,https://api.v2.clean2gether.com/uploads/37539_BED_5_E26_4_D70_87_D5_F1_BB_6_A0_BD_51_F_jpg_8742a46282.jpg,https://api.v2.clean2gether.com/uploads/1_C762_B71_8572_4_D4_A_B71_C_96_F52_C8_ED_505_jpg_ab6093c675.jpg,,,,,,,,,
46.13126,-1.12977,Aytré,17440,CA de La Rochelle,Charente-Maritime,https://api.v2.clean2gether.com/uploads/ACDB_9023_FDB_5_4_E33_A826_62_F90_F632_F36_jpg_e20658061e.jpg,,,,,,,,,,,,,
45.5371,0.23867,Fouquebrune,16410,CC Lavalette Tude Dronne,Charente,https://api.v2.clean2gether.com/uploads/0409_E5_D0_272_C_470_C_A34_B_50534_A4_E8986_jpg_f106e62d46.jpg,,,,,,,,,,,,,
45.65533,0.18829,Angoulême,16340,CA du Grand Angoulême,Charente,https://api.v2.clean2gether.com/uploads/f88ca665_660d_4063_b588_fb356897a423_jpg_96ad3ad6c9.jpg,,,,,,,,,,,,,
45.6449,0.1057,Saint-Michel,16470,CA du Grand Angoulême,Charente,https://api.v2.clean2gether.com/uploads/a9e8fa4a_47ac_472a_b09e_03003d6cdd52_jpg_83ff6b16c7.jpg,,,,,,,,,,,,,
45.77733,0.29354,Agris,16110,CC La Rochefoucauld - Porte du Périgord,Charente,https://api.v2.clean2gether.com/uploads/AB_860_FBA_FE_27_49_C9_9143_F8_D058_A32_B48_jpg_998bdea39f.jpg,https://api.v2.clean2gether.com/uploads/E7_F1_E2_C0_F9_DD_428_C_86_B0_A1_A7123_AA_6_D2_jpg_24b9880e3c.jpg,https://api.v2.clean2gether.com/uploads/27451_A34_23_B4_4456_8_A77_BF_60_E720_DF_67_jpg_f6a1d3acaf.jpg,,,,,,,,,,,
45.79574,0.21373,Tourriers,16560,CC Coeur de Charente,Charente,https://api.v2.clean2gether.com/uploads/0eeb59e6_19e2_4cf5_aa84_b63771f95970_jpg_4c61b2caeb.jpg,,,,,,,,,,,,,
45.65562,-0.2605,Gensac-la-Pallue,16130,CA du Grand Cognac,Charente,https://api.v2.clean2gether.com/uploads/07f244a8_ddaa_4298_a28c_ba2ff82a659e_jpg_230f1bc767.jpg,,,,,,,,,,,,,
45.67682,0.24096,Ruelle-sur-Touvre,16600,CA du Grand Angoulême,Charente,https://api.v2.clean2gether.com/uploads/dcf8706d_983d_4106_aa63_b1009ae25c61_jpg_427da76b53.jpg,,,,,,,,,,,,,
44.52704,-0.31454,Fargues,33210,CC du Sud Gironde,Gironde,https://api.v2.clean2gether.com/uploads/4c091d47_e7b8_494b_9641_241de9a4f867_jpg_ff08449fcd.jpg,,,,,,,,,,,,,
44.52677,-0.3148,Fargues,33210,CC du Sud Gironde,Gironde,https://api.v2.clean2gether.com/uploads/e940e10a_f5b3_41d7_9ffa_38fbec1dcc7c_jpg_eadf5b821e.jpg,,,,,,,,,,,,,
44.52459,-0.31594,Fargues,33210,CC du Sud Gironde,Gironde,https://api.v2.clean2gether.com/uploads/a2359fd9_4783_4fd3_89d9_476b1bdae35e_jpg_1372f0c948.jpg,,,,,,,,,,,,,
44.52568,-0.3158,Fargues,33210,CC du Sud Gironde,Gironde,https://api.v2.clean2gether.com/uploads/068a0bd0_4fa3_420a_b23c_f1a3c3392bb7_jpg_32f11ddf27.jpg,,,,,,,,,,,,,
45.56202,0.10123,Mouthiers-sur-Boëme,16440,CA du Grand Angoulême,Charente,https://api.v2.clean2gether.com/uploads/43_B94810_AAAE_4_CF_2_B526_F6_AE_795_E0_F39_jpg_cade4a6705.jpg,,,,,,,,,,,,,
45.66265,0.16428,Gond-Pontouvre,16160,CA du Grand Angoulême,Charente,https://api.v2.clean2gether.com/uploads/bd7db261_914d_4999_ad5d_188c032a0d26_jpg_b9df6513d6.jpg,,,,,,,,,,,,,
45.92316,0.20339,Moutonneau,16460,CC Coeur de Charente,Charente,https://api.v2.clean2gether.com/uploads/efcd105c_979f_41cb_9d58_83e9e899afe4_jpg_fa2dfcc60a.jpg,,,,,,,,,,,,,
45.65087,0.15694,Angoulême,16000,CA du Grand Angoulême,Charente,https://api.v2.clean2gether.com/uploads/9de01960_0e3d_45fa_a159_6be2db15656f_jpg_6c1269e645.jpg,,,,,,,,,,,,,
45.68669,0.16888,Gond-Pontouvre,16160,CA du Grand Angoulême,Charente,https://api.v2.clean2gether.com/uploads/1cc949ca_862c_4c5f_ac19_3274a8fc72bd_jpg_83a4d40721.jpg,,,,,,,,,,,,,
45.68791,0.17024,Gond-Pontouvre,16160,CA du Grand Angoulême,Charente,https://api.v2.clean2gether.com/uploads/0e47ab5c_b4c3_45ec_9d76_7b4c4e374bfb_jpg_c9dffffe94.jpg,,,,,,,,,,,,,
45.64274,-0.20398,Segonzac,16130,CA du Grand Cognac,Charente,https://api.v2.clean2gether.com/uploads/0b72079b_370a_4328_bf0c_be6d59941cca_jpg_c7ba5feb85.jpg,,,,,,,,,,,,,
45.45095,-0.12194,Salles-de-Barbezieux,16300,CC des 4B Sud Charente,Charente,https://api.v2.clean2gether.com/uploads/c058c162_a4a1_4a6d_bd24_48aa55edcec5_jpg_34a42b55fb.jpg,,,,,,,,,,,,,
46.017,0.21595,Condac,16700,CC Val de Charente,Charente,https://api.v2.clean2gether.com/uploads/1b0eb370_e3e6_4040_bbde_091d83573a09_jpg_c3636fc760.jpg,https://api.v2.clean2gether.com/uploads/d1534483_1221_40e1_a605_c05eed0b6098_jpg_651bf27637.jpg,,,,,,,,,,,,
45.62719,0.14253,Angoulême,16000,CA du Grand Angoulême,Charente,https://api.v2.clean2gether.com/uploads/5_BBDCA_33_97_A9_437_B_9526_4_FD_1423865_BE_jpg_f3c02f8755.jpg,,,,,,,,,,,,,
45.68816,-0.07316,Mérignac,16200,CA du Grand Cognac,Charente,https://api.v2.clean2gether.com/uploads/D558_C285_AAA_8_47_F5_9580_029_A5_BF_493_C1_jpg_d50c5a4afc.jpg,,,,,,,,,,,,,
45.68765,-0.07351,Mérignac,16200,CA du Grand Cognac,Charente,https://api.v2.clean2gether.com/uploads/2_BEEDBC_8_FC_58_4_EB_3_BA_08_E3_C42_EF_6_DD_59_jpg_9e942c659a.jpg,,,,,,,,,,,,,
45.72539,0.27211,Brie,16590,CA du Grand Angoulême,Charente,https://api.v2.clean2gether.com/uploads/95ebd82b_4c4d_40cf_aa37_b4d6882462ae_jpg_c185c6b5eb.jpg,https://api.v2.clean2gether.com/uploads/da65f966_d1e4_47c7_9a44_03494a5119e1_jpg_5efa5e4f9b.jpg,,,,,,,,,,,,
45.62163,-0.01449,Mosnac,16120,CA du Grand Cognac,Charente,https://api.v2.clean2gether.com/uploads/6344_A1_A2_DAD_1_47_FC_AEF_8_ECA_0_AA_19170_A_jpg_4c79378bbf.jpg,https://api.v2.clean2gether.com/uploads/6533_A1_EF_B25_C_4043_9_BEF_6_E6609163304_jpg_b2bb0e7716.jpg,https://api.v2.clean2gether.com/uploads/66724_F7_C_2307_47_DF_BD_8_A_17_D6_B1_CE_85_A4_jpg_bec4906d69.jpg,https://api.v2.clean2gether.com/uploads/67_AFBCBD_EA_47_42_FC_AADA_8_A635_FF_33_AA_1_jpg_95371a9155.jpg,https://api.v2.clean2gether.com/uploads/B226_B67_D_27_CA_4386_9_CB_5_EE_9_B8_DE_76_CEE_jpg_664dee908d.jpg,,,,,,,,,
45.6648,0.33492,Pranzac,16110,CC La Rochefoucauld - Porte du Périgord,Charente,https://api.v2.clean2gether.com/uploads/7_EAE_3409_D273_4_E0_F_A94_D_C48388_D7_D939_jpg_da3e224939.jpg,,,,,,,,,,,,,
45.63945,0.23435,Magnac-sur-Touvre,16600,CA du Grand Angoulême,Charente,https://api.v2.clean2gether.com/uploads/e1ab6bc5_3ee3_45ce_beff_4ab24a58bfd4_jpg_d164711f62.jpg,https://api.v2.clean2gether.com/uploads/859a8b18_c787_4e6b_b172_05deaf725654_jpg_8b87ffdc0d.jpg,https://api.v2.clean2gether.com/uploads/7bf5f855_1d31_445a_bc24_cf514a6a7492_jpg_6a34367dae.jpg,https://api.v2.clean2gether.com/uploads/6affabce_1ca1_48b6_9435_f23f95872af3_jpg_1da67f26a3.jpg,,,,,,,,,,
45.67634,0.17471,Gond-Pontouvre,16160,CA du Grand Angoulême,Charente,https://api.v2.clean2gether.com/uploads/a61e9fc7_a14c_4e67_8e5e_c6a8d9bffe4e_jpg_1a0212e3be.jpg,,,,,,,,,,,,,
45.69982,0.28855,Mornac,16600,CA du Grand Angoulême,Charente,https://api.v2.clean2gether.com/uploads/85fdbc14_8788_4192_954a_5800022230d0_jpg_a9fce70883.jpg,,,,,,,,,,,,,
45.91618,0.08701,Ligné,16140,CC Coeur de Charente,Charente,https://api.v2.clean2gether.com/uploads/3dd88eba_5074_46f1_9ffa_56f13eb72f4d_jpg_3a9a71a979.jpg,,,,,,,,,,,,,
45.70796,0.25411,Brie,16430,CA du Grand Angoulême,Charente,https://api.v2.clean2gether.com/uploads/8f09c04c_5267_4c6a_99e8_fa7f8f1fd292_jpg_2aa9ced725.jpg,,,,,,,,,,,,,
45.71157,0.23389,Champniers,16430,CA du Grand Angoulême,Charente,https://api.v2.clean2gether.com/uploads/dd28f4b7_693c_4d90_b79c_ba6e2de5811d_jpg_e4f831a738.jpg,,,,,,,,,,,,,
45.71091,0.23122,Champniers,16430,CA du Grand Angoulême,Charente,https://api.v2.clean2gether.com/uploads/fe095147_ee8a_4041_ba86_58f73a98ccfe_jpg_e52d502c77.jpg,,,,,,,,,,,,,
45.68737,0.2115,Champniers,16600,CA du Grand Angoulême,Charente,https://api.v2.clean2gether.com/uploads/72182677_010f_4a8e_8a95_f3de385186c0_jpg_f4ad7851e2.jpg,,,,,,,,,,,,,
45.70087,0.163,Champniers,16430,CA du Grand Angoulême,Charente,https://api.v2.clean2gether.com/uploads/e7b5b859_72ec_424d_8a18_de8907651f8c_jpg_eff1d48f30.jpg,,,,,,,,,,,,,
45.87501,0.58589,Roumazières-Loubert,16270,CC de Charente Limousine,Charente,https://api.v2.clean2gether.com/uploads/CF_9_B6480_A4_F4_423_E_AD_40_CA_058171_D099_jpg_ad3e0f3317.jpg,,,,,,,,,,,,,
46.01579,0.21065,Ruffec,16700,CC Val de Charente,Charente,https://api.v2.clean2gether.com/uploads/49_F97460_61_AE_46_DD_AC_2_A_26_FC_998_E8_A21_jpg_ba110b757b.jpg,,,,,,,,,,,,,
45.63536,0.1065,Saint-Michel,16400,CA du Grand Angoulême,Charente,https://api.v2.clean2gether.com/uploads/932f9409_d234_4542_9a43_a09ee4d369f0_jpg_97b353c2c2.jpg,,,,,,,,,,,,,
45.8743,0.0212,Marcillac-Lanville,16140,CC du Rouillacais,Charente,https://api.v2.clean2gether.com/uploads/013_A1729_CAB_6_40_AC_90_FA_E8_F0_BC_668_E6_E_jpg_a61b83f3b5.jpg,,,,,,,,,,,,,
45.87503,0.021,Marcillac-Lanville,16140,CC du Rouillacais,Charente,https://api.v2.clean2gether.com/uploads/459439_D9_5_F3_A_45_AD_8054_DDFDB_093_AC_38_jpg_4296710e4e.jpg,,,,,,,,,,,,,
45.9229,0.48179,Saint-Laurent-de-Céris,16450,CC de Charente Limousine,Charente,https://api.v2.clean2gether.com/uploads/E1_E77_E32_A15_A_4964_A18_D_51_D6_D518644_F_jpg_be5e085cb9.jpg,,,,,,,,,,,,,
44.68281,-0.56827,La Brède,33650,CC de Montesquieu,Gironde,https://api.v2.clean2gether.com/uploads/50_CBBEA_5_FC_3_C_4_B3_C_911_B_CEB_23_AAF_8_D6_F_jpg_22ca3d6672.jpg,,,,,,,,,,,,,
46.07947,-1.00171,Thairé,17290,CA de La Rochelle,Charente-Maritime,https://api.v2.clean2gether.com/uploads/bb68561b_0f97_4b07_bf31_6189e25d57b1_jpg_66c845ed0d.jpg,,,,,,,,,,,,,
43.15802,-1.27775,Lasse,64220,CA du Pays Basque,Pyrénées-Atlantiques,https://api.v2.clean2gether.com/uploads/f05e9854_75db_4e49_ad64_9feba9cdeb46_jpg_73739c43bf.jpg,,,,,,,,,,,,,
46.1996,0.11847,Chaunay,86510,CC du Civraisien en Poitou,Vienne,https://api.v2.clean2gether.com/uploads/50d18350_46ef_4f8a_b411_27d228029ae9_jpg_5c495570d3.jpg,,,,,,,,,,,,,
44.86783,-0.31701,Saint-Germain-du-Puch,33870,CA du Libournais,Gironde,https://api.v2.clean2gether.com/uploads/85ebe4e2_8b28_44db_85e3_089995e62441_jpg_aa5af1b9b6.jpg,,,,,,,,,,,,,
44.86802,-0.31741,Saint-Germain-du-Puch,33870,CA du Libournais,Gironde,https://api.v2.clean2gether.com/uploads/32801d6c_5957_4731_92f9_48bce55e9be0_jpg_ebd2d98214.jpg,,,,,,,,,,,,,
44.87211,-0.32169,Vayres,33870,CA du Libournais,Gironde,https://api.v2.clean2gether.com/uploads/f21175eb_1cff_4083_bb4d_db400c2637f1_jpg_47040938bf.jpg,,,,,,,,,,,,,
43.09853,-1.44146,Aldudes,64430,CA du Pays Basque,Pyrénées-Atlantiques,https://api.v2.clean2gether.com/uploads/f73015e5_a3cc_4866_9cbc_9f49f6ba95de_jpg_ef41ab88b6.jpg,https://api.v2.clean2gether.com/uploads/c79e81d7_6fc3_475f_9365_ae49b0f0761f_jpg_6e96dfb604.jpg,https://api.v2.clean2gether.com/uploads/08470641_a568_410b_93df_6939a33c2064_jpg_aa29178567.jpg,,,,,,,,,,,
44.80198,-0.63089,Pessac,33600,Bordeaux Métropole,Gironde,https://api.v2.clean2gether.com/uploads/7_DE_43035_3_E05_4_E9_C_B14_D_DC_906_F227_B7_B_jpg_a991ff531c.jpg,,,,,,,,,,,,,
45.71934,0.27611,Brie,16590,CA du Grand Angoulême,Charente,https://api.v2.clean2gether.com/uploads/8268_5d85973ead.png,,,,,,,,,,,,,
45.39785,0.07692,Courgeac,16190,CC Lavalette Tude Dronne,Charente,https://api.v2.clean2gether.com/uploads/43_E602_FF_BC_38_4138_A553_AE_3_C1_AB_4_F771_jpg_a628130cf1.jpg,https://api.v2.clean2gether.com/uploads/3_B0252_AD_2262_4_F51_930_C_E76_E585_C7_D2_E_jpg_244c448222.jpg,https://api.v2.clean2gether.com/uploads/39385745_3728_47_BF_A8_F2_C96_FD_90_BEEED_jpg_27ac1ef0bd.jpg,,,,,,,,,,,
45.39693,0.0784,Courgeac,16190,CC Lavalette Tude Dronne,Charente,https://api.v2.clean2gether.com/uploads/D27_FC_432_143_C_40_DB_A58_E_DEA_54_CA_2_EBEB_jpg_d231d4a72f.jpg,https://api.v2.clean2gether.com/uploads/33_B8_FF_72_718_E_417_D_AE_13_185958_FE_6_E13_jpg_514dab4d6c.jpg,https://api.v2.clean2gether.com/uploads/B9_A44212_A46_B_4_CDC_A79_A_A3_DA_4_FF_3_DBDD_jpg_b251618b9e.jpg,,,,,,,,,,,
44.68437,-0.55957,La Brède,33650,CC de Montesquieu,Gironde,https://api.v2.clean2gether.com/uploads/46_B3_A772_E4_E0_4_F6_D_A386_430_E07_E1544_B_jpg_f92a20a33c.jpg,https://api.v2.clean2gether.com/uploads/10_A01470_00_AE_4_BB_2_ACC_8_C4_E5_C3741127_jpg_1c28431066.jpg,,,,,,,,,,,,
44.95708,-0.62129,Parempuyre,33290,Bordeaux Métropole,Gironde,https://api.v2.clean2gether.com/uploads/136f229e_c16e_49dc_8f3b_538a8dbe9538_jpg_c0457c664d.jpg,,,,,,,,,,,,,
44.95414,-0.62139,Parempuyre,33290,Bordeaux Métropole,Gironde,https://api.v2.clean2gether.com/uploads/9d210f81_84ca_496e_827f_045f6347640e_jpg_049ff0e332.jpg,,,,,,,,,,,,,
44.95468,-0.62067,Parempuyre,33290,Bordeaux Métropole,Gironde,https://api.v2.clean2gether.com/uploads/094c11e1_fea3_40e7_8d08_bf80ad716510_jpg_64264b7ce6.jpg,,,,,,,,,,,,,
44.9572,-0.62172,Parempuyre,33290,Bordeaux Métropole,Gironde,https://api.v2.clean2gether.com/uploads/d7dcb122_6168_4cb7_bd01_c0efa2c41d42_jpg_f6037d7b20.jpg,,,,,,,,,,,,,
44.95673,-0.61804,Parempuyre,33290,Bordeaux Métropole,Gironde,https://api.v2.clean2gether.com/uploads/14007ab2_d510_4249_a080_d0d07de84d07_jpg_e4aac2b66f.jpg,,,,,,,,,,,,,
46.08011,-1.02539,Thairé,17290,CA de La Rochelle,Charente-Maritime,https://api.v2.clean2gether.com/uploads/3728c791_3a14_44bd_ac72_3ba9e91986e2_jpg_cfb194e1c8.jpg,,,,,,,,,,,,,
46.08089,-1.03345,Saint-Vivien,17220,CA de La Rochelle,Charente-Maritime,https://api.v2.clean2gether.com/uploads/32b1bca3_ab9d_4fea_bc5c_fe529c8071da_jpg_038fea172d.jpg,,,,,,,,,,,,,
44.96163,-0.6613,Le Pian-Médoc,33290,CC Médoc Estuaire,Gironde,https://api.v2.clean2gether.com/uploads/A6_F55_FDC_54_E8_4_D1_D_A39_A_DF_258_D9_D54_CC_jpg_6d0572c261.jpg,,,,,,,,,,,,,
45.82563,0.46498,Chasseneuil-sur-Bonnieure,16260,CC de Charente Limousine,Charente,https://api.v2.clean2gether.com/uploads/9f0c127f_03b2_4934_8946_157965887f5f_jpg_bf8424a909.jpg,,,,,,,,,,,,,
44.68723,-0.55677,La Brède,33650,CC de Montesquieu,Gironde,https://api.v2.clean2gether.com/uploads/EA_6_E06_E0_C7_EB_40_D1_9_CCB_0_D5_D6_EC_9_A9_A5_jpg_d8f84cfa18.jpg,,,,,,,,,,,,,
44.68692,-0.5708,La Brède,33650,CC de Montesquieu,Gironde,https://api.v2.clean2gether.com/uploads/24054655_6_AC_3_4_C27_8_F00_8_ED_9711_AA_19_F_jpg_ed8b221026.jpg,,,,,,,,,,,,,
44.69527,-0.57568,La Brède,33650,CC de Montesquieu,Gironde,https://api.v2.clean2gether.com/uploads/BB_785518_2570_4_FED_934_B_B349512_F3058_jpg_5da827fb6b.jpg,https://api.v2.clean2gether.com/uploads/9_E53_B22_E_D8_CB_4_F45_8_DB_3_D1_B3229_F0068_jpg_5c4da7531f.jpg,,,,,,,,,,,,
44.69534,-0.57415,La Brède,33650,CC de Montesquieu,Gironde,https://api.v2.clean2gether.com/uploads/B599_E261_7_CA_7_474_D_A7_C6_AAC_166_D19_D89_jpg_9bce52dfb5.jpg,https://api.v2.clean2gether.com/uploads/F7_F69_EF_1_615_B_441_E_A6_B6_7_A6_AFBFD_0382_jpg_b3bd63cbfa.jpg,https://api.v2.clean2gether.com/uploads/13_D9_DCB_5_E14_B_47_CC_AC_37_BD_5_CA_6_F12_C5_D_jpg_e2d70749b2.jpg,,,,,,,,,,,
44.69504,-0.57161,La Brède,33650,CC de Montesquieu,Gironde,https://api.v2.clean2gether.com/uploads/5729719_D_D82_D_4632_9575_A9_A504658_EA_5_jpg_38fb48b9dc.jpg,https://api.v2.clean2gether.com/uploads/A1_DE_6_C8_A_F870_4397_87_CB_FC_3_FA_6_B9_C56_D_jpg_a82aeb7363.jpg,,,,,,,,,,,,
44.69544,-0.56944,La Brède,33650,CC de Montesquieu,Gironde,https://api.v2.clean2gether.com/uploads/38_F5_A3_DF_D1_CC_4_FFE_AF_59_BA_12_BAEC_32_EF_jpg_b9812d16e6.jpg,https://api.v2.clean2gether.com/uploads/0_AEEF_127_A092_413_C_9_C83_C690885_DF_0_F8_jpg_05e67e7457.jpg,,,,,,,,,,,,
44.69503,-0.57266,La Brède,33650,CC de Montesquieu,Gironde,https://api.v2.clean2gether.com/uploads/FBFFF_254_827_F_4119_8818_5_C7_C9_D5_E173_D_jpg_f4cca3bc27.jpg,https://api.v2.clean2gether.com/uploads/E5_AB_3_E93_E1_E2_4165_B9_FB_84_A62116_FF_96_jpg_35bd5bfa0f.jpg,https://api.v2.clean2gether.com/uploads/DE_90_F49_C_C655_4_CEB_98_C4_411_B7_E38_C5_CA_jpg_6387ff96dc.jpg,,,,,,,,,,,
44.69468,-0.5706,La Brède,33650,CC de Montesquieu,Gironde,https://api.v2.clean2gether.com/uploads/CC_3_E0529_C5_B3_4_A41_8964_0_AE_9405_F7_F3_E_jpg_21ec40c8e0.jpg,https://api.v2.clean2gether.com/uploads/F1_B27584_92_DE_472_D_A2_EE_2039_EC_8_E8_E30_jpg_a2c8ae379b.jpg,,,,,,,,,,,,
44.6936,-0.54454,La Brède,33650,CC de Montesquieu,Gironde,https://api.v2.clean2gether.com/uploads/15_F99_A17_6_E18_4908_8426_297662211021_jpg_7c447ba8f2.jpg,https://api.v2.clean2gether.com/uploads/9_E799524_1905_4_B0_A_947_C_3_C488_D5_A4407_jpg_89206bce3c.jpg,,,,,,,,,,,,
44.69668,-0.5426,La Brède,33650,CC de Montesquieu,Gironde,https://api.v2.clean2gether.com/uploads/BC_248697_4_C83_4986_8_A7_D_8_E4_E24_F8_F771_jpg_dc8456a70a.jpg,https://api.v2.clean2gether.com/uploads/E9_D3_F710_7_BEF_48_E4_A176_B78_E916610_BD_jpg_918f839863.jpg,,,,,,,,,,,,
44.74775,-0.65784,Canéjan,33610,CC Jalle-Eau-Bourde,Gironde,https://api.v2.clean2gether.com/uploads/013f5b60_7b06_4228_b6fb_b0b1051c8ad7_jpg_41edf4350f.jpg,,,,,,,,,,,,,
46.61413,0.33036,Poitiers,86000,CU du Grand Poitiers,Vienne,https://api.v2.clean2gether.com/uploads/cbe4a0ab_3f3b_45d6_bf98_474bde3c5824_jpg_b406aec837.jpg,,,,,,,,,,,,,
46.61816,0.32992,Poitiers,86000,CU du Grand Poitiers,Vienne,https://api.v2.clean2gether.com/uploads/b20fa2da_bb94_4bb5_b700_57f443e1992b_jpg_997b270472.jpg,https://api.v2.clean2gether.com/uploads/65420c49_530f_4087_8375_8224e37f78bd_jpg_0ba47fe17d.jpg,,,,,,,,,,,,
46.63141,0.32232,Migné-Auxances,86440,CU du Grand Poitiers,Vienne,https://api.v2.clean2gether.com/uploads/474bc66a_f8c7_4545_bede_e9e8b0551da6_jpg_7dc9f629bd.jpg,,,,,,,,,,,,,
45.74501,-0.37341,Cherves-Richemont,16370,CA du Grand Cognac,Charente,https://api.v2.clean2gether.com/uploads/d2be969e_2317_4b9f_9b7a_01576423728f_jpg_01b1f0f30b.jpg,,,,,,,,,,,,,
45.74642,-0.37343,Cherves-Richemont,16370,CA du Grand Cognac,Charente,https://api.v2.clean2gether.com/uploads/cc94e3f3_2bd5_4ce7_b6ad_3f7d42abb4be_jpg_87e8fa6ef6.jpg,,,,,,,,,,,,,
45.74709,-0.37256,Cherves-Richemont,16370,CA du Grand Cognac,Charente,https://api.v2.clean2gether.com/uploads/7e67c95e_d285_4cdd_95bc_6976fba65cf3_jpg_718f8a61e9.jpg,,,,,,,,,,,,,
44.2823,0.75768,Laroque-Timbaut,47340,CA du Grand Villeneuvois,Lot-et-Garonne,https://api.v2.clean2gether.com/uploads/BE_091_B6_C_235_C_4_D2_A_8158_632_A934_EE_81_B_jpg_dc33abf39e.jpg,,,,,,,,,,,,,
45.67193,0.28799,Mornac,16600,CA du Grand Angoulême,Charente,https://api.v2.clean2gether.com/uploads/01043ea9_b68e_406f_a84c_c37f5d9b7a4f_jpg_4238ccdd0f.jpg,,,,,,,,,,,,,
45.29743,-0.48455,Chamouillac,17130,CC de la Haute Saintonge,Charente-Maritime,https://api.v2.clean2gether.com/uploads/7_DEF_3_E56_09_EB_43_B1_8_A47_9655_D7_D2_E997_jpg_b878c63c4c.jpg,,,,,,,,,,,,,
45.24724,0.00953,Rioux-Martin,16210,CC Lavalette Tude Dronne,Charente,https://api.v2.clean2gether.com/uploads/e6fa39b5_71eb_4f9a_8844_406cc162eb7a_jpg_ab39928442.jpg,,,,,,,,,,,,,
45.76658,-0.54623,La Chapelle-des-Pots,17100,CA de Saintes,Charente-Maritime,https://api.v2.clean2gether.com/uploads/781_BF_50_C_242_A_47_C2_895_B_F43_C2_F43_EAA_5_jpg_e4e51c1473.jpg,,,,,,,,,,,,,
45.68232,-0.09659,Triac-Lautrait,16200,CA du Grand Cognac,Charente,https://api.v2.clean2gether.com/uploads/DC_9_B75_EE_8_AEC_4_BB_7_92_F7_0_DB_64_BB_5_A771_jpg_7d3b206760.jpg,,,,,,,,,,,,,
46.29163,1.85265,Le Bourg-d'Hem,23220,CC Monts et Vallées Ouest Creuse,Creuse,https://api.v2.clean2gether.com/uploads/6ec0e0b3_d248_4b2b_bdda_1b395f21ece9_jpg_34f26eb442.jpg,,,,,,,,,,,,,
46.28255,1.86374,Anzême,23000,CA du Grand Guéret,Creuse,https://api.v2.clean2gether.com/uploads/64451c81_256d_438e_bc09_8df0b858af9b_jpg_6d08525bbf.jpg,,,,,,,,,,,,,
46.29735,1.92869,Jouillat,23220,CA du Grand Guéret,Creuse,https://api.v2.clean2gether.com/uploads/1f3fc5c2_26cb_478e_83a3_e04d56af3f0f_jpg_348ce0cde9.jpg,,,,,,,,,,,,,
46.37589,1.79248,Lourdoueix-Saint-Pierre,23360,CC Portes de la Creuse en Marche,Creuse,https://api.v2.clean2gether.com/uploads/9bdaee68_776d_4a8b_b4ec_b34afabb7f50_jpg_bdf362161a.jpg,,,,,,,,,,,,,
46.14305,-1.05229,Clavette,17220,CA de La Rochelle,Charente-Maritime,https://api.v2.clean2gether.com/uploads/60b05049_f4b0_4548_be6e_ce79dfaa4fe7_jpg_0a0908cd39.jpg,,,,,,,,,,,,,
45.94266,-1.30721,Saint-Pierre-d'Oléron,17310,CC de l'Ile d'Oléron,Charente-Maritime,https://api.v2.clean2gether.com/uploads/9_EF_588_F8_EDCB_4_B4_D_AED_3_5_BC_56_C2_BEF_4_C_jpg_ac2c798245.jpg,,,,,,,,,,,,,
46.34073,1.91082,Bonnat,23220,CC Portes de la Creuse en Marche,Creuse,https://api.v2.clean2gether.com/uploads/6a81f433_b31b_445f_ac0e_f4c5cfcceeb6_jpg_fb6d4614a6.jpg,,,,,,,,,,,,,
46.38081,1.78938,Lourdoueix-Saint-Pierre,23360,CC Portes de la Creuse en Marche,Creuse,https://api.v2.clean2gether.com/uploads/9dbb7f72_b5d9_44ae_8264_91c5be2dff76_jpg_102cb81a60.jpg,,,,,,,,,,,,,
46.36322,1.89187,Linard,23220,CC Portes de la Creuse en Marche,Creuse,https://api.v2.clean2gether.com/uploads/7f3b565b_bb2e_4986_9f9e_358dd281d5c0_jpg_a4d7fee22f.jpg,,,,,,,,,,,,,
45.01273,-0.14305,Abzac,33230,CA du Libournais,Gironde,https://api.v2.clean2gether.com/uploads/afc28014_edda_4f60_9334_0bf0f36fd271_jpg_40d55b6331.jpg,,,,,,,,,,,,,
46.09894,-0.83566,Péré,17700,CC Aunis Sud,Charente-Maritime,https://api.v2.clean2gether.com/uploads/99757c37_9819_4a0d_8900_6b0762fbd0cd_jpg_eb091d04bc.jpg,,,,,,,,,,,,,
44.69554,-0.23844,Cantois,33760,CC rurales de l'Entre-Deux-Mers,Gironde,https://api.v2.clean2gether.com/uploads/df5341d7_91a3_4684_a971_cf208888f2be_jpg_5a74c499a4.jpg,,,,,,,,,,,,,
44.9375,-0.55727,Blanquefort,33290,Bordeaux Métropole,Gironde,https://api.v2.clean2gether.com/uploads/4da425e9_cb4e_4c43_9bda_890f6a55d103_jpg_74b434ed29.jpg,,,,,,,,,,,,,
44.82799,-0.28332,Saint-Quentin-de-Baron,33750,CA du Libournais,Gironde,https://api.v2.clean2gether.com/uploads/66f5db29_96a8_4a0a_bc50_e71e75ca3dd5_jpg_234454e74c.jpg,,,,,,,,,,,,,
44.9639,-0.6638,Le Pian-Médoc,33290,CC Médoc Estuaire,Gironde,https://api.v2.clean2gether.com/uploads/EA_795763_2_EE_8_42_FD_B517_2_E6_C2_C1_B6_DE_6_jpg_4cc830500e.jpg,,,,,,,,,,,,,
45.89816,-1.23566,Dolus-d'Oléron,17550,CC de l'Ile d'Oléron,Charente-Maritime,https://api.v2.clean2gether.com/uploads/d59a6b99_4a4b_46a4_899f_bccac4c02dfb_jpg_d491ebf1a2.jpg,,,,,,,,,,,,,
45.92685,-1.34633,Saint-Pierre-d'Oléron,17310,CC de l'Ile d'Oléron,Charente-Maritime,https://api.v2.clean2gether.com/uploads/17939aff_6dba_4bb3_9057_aca34f0601d3_jpg_b0563f8b48.jpg,,,,,,,,,,,,,
46.07359,-0.8325,Landrais,17290,CC Aunis Sud,Charente-Maritime,https://api.v2.clean2gether.com/uploads/4a302313_5257_4317_ab24_7a14e0c60dfb_jpg_5474f98955.jpg,https://api.v2.clean2gether.com/uploads/a5c6cb4c_92ac_43a8_a5b9_7055bbd40bd3_jpg_e83ecd8c29.jpg,https://api.v2.clean2gether.com/uploads/3e5e5c63_ffb7_48d0_9bf7_a7b4fb9f480d_jpg_5e7d28741f.jpg,https://api.v2.clean2gether.com/uploads/1c8bf533_7c72_40bf_a56b_fa4159f1a1fc_jpg_a4085edc52.jpg,https://api.v2.clean2gether.com/uploads/cc693e3e_0ebf_4c35_bbb1_17eb2841fcc5_jpg_03eedba296.jpg,https://api.v2.clean2gether.com/uploads/d63ea4d6_d986_4c95_bc1b_64a14b519e65_jpg_c35521c1d0.jpg,https://api.v2.clean2gether.com/uploads/5f49c03d_3f03_473d_ae70_db97abc8d644_jpg_053ad458a1.jpg,,,,,,,
44.88378,-0.36998,Beychac-et-Caillau,33750,CC du Secteur de Saint-Loubès,Gironde,https://api.v2.clean2gether.com/uploads/e458ef1c_0f7b_4e4f_91a5_bfae2d0ff512_jpg_738e15789d.jpg,,,,,,,,,,,,,
43.34975,-0.34133,Buros,64000,CA Pau Béarn Pyrénées,Pyrénées-Atlantiques,https://api.v2.clean2gether.com/uploads/1_FFC_0_B84_446_E_44_BB_978_A_9_E2_FA_51205_B7_jpg_81a4ff6e17.jpg,https://api.v2.clean2gether.com/uploads/9967_DE_6_B_02_BA_457_C_964_F_89_AB_64453_C1_D_jpg_e95e93db3d.jpg,,,,,,,,,,,,
44.93503,-0.65058,Blanquefort,33290,Bordeaux Métropole,Gironde,https://api.v2.clean2gether.com/uploads/ed32638f_d746_4d5a_9e09_54645cb1a804_jpg_8890216055.jpg,,,,,,,,,,,,,
44.98869,-0.27555,Galgon,33133,CC du Fronsadais,Gironde,https://api.v2.clean2gether.com/uploads/0182_CE_93_A046_43_E1_ABE_1_A556_B45_B378_B_jpg_ea6eec014e.jpg,https://api.v2.clean2gether.com/uploads/0462_A42_D_C273_4837_BF_79_7_DAB_2865_DCB_6_jpg_554d0b4297.jpg,https://api.v2.clean2gether.com/uploads/F319490_B_A63_D_4731_8_C86_FCDCC_4_B364_F8_jpg_0868b701b8.jpg,,,,,,,,,,,
44.77402,-0.15931,Jugazan,33420,CC Castillon/Pujols,Gironde,https://api.v2.clean2gether.com/uploads/31cdbddd_2728_418a_a5ad_3f7040b7dd49_jpg_f11e40df62.jpg,,,,,,,,,,,,,
44.93473,-0.65088,Blanquefort,33290,Bordeaux Métropole,Gironde,https://api.v2.clean2gether.com/uploads/61d15552_ad84_45fb_b263_be8f001eeb7e_jpg_700ba6796c.jpg,,,,,,,,,,,,,
46.45891,0.28191,Vivonne,86370,CC des Vallées du Clain,Vienne,https://api.v2.clean2gether.com/uploads/CBE_31_A13_6_C2_B_4_D8_C_8_BC_3_63_BF_5_AC_66841_jpg_852588433a.jpg,https://api.v2.clean2gether.com/uploads/EDC_48085_6_F86_44_EF_84_B3_8_B1_D9_DA_94036_jpg_0c5e9ab583.jpg,https://api.v2.clean2gether.com/uploads/FFDB_0489_DC_65_43_E5_9035_843631364_B8_A_jpg_5b12061433.jpg,https://api.v2.clean2gether.com/uploads/348336_D6_8636_4007_96_D6_8_EFEF_74_DD_3_A5_jpg_a38e0dcc4c.jpg,,,,,,,,,,
43.17967,-1.23218,Ispoure,64220,CA du Pays Basque,Pyrénées-Atlantiques,https://api.v2.clean2gether.com/uploads/BC_19245_E_8608_4_BA_8_B87_B_E9415_A274_BEC_jpg_0d3387e974.jpg,,,,,,,,,,,,,
44.9213,-0.65402,Blanquefort,33290,Bordeaux Métropole,Gironde,https://api.v2.clean2gether.com/uploads/0b6f1447_daed_49cb_bc2a_1dc7044a6622_jpg_6c564f60b1.jpg,,,,,,,,,,,,,
46.07335,-0.89273,Landrais,17290,CC Aunis Sud,Charente-Maritime,https://api.v2.clean2gether.com/uploads/01488bbc_0170_4cc0_87f7_bbe7b618e1a5_jpg_0c7ecc555d.jpg,,,,,,,,,,,,,
44.9088,-0.65499,Blanquefort,33320,Bordeaux Métropole,Gironde,https://api.v2.clean2gether.com/uploads/a1c7c6ca_1131_407c_88da_6712e96a271b_jpg_b242bd1b68.jpg,https://api.v2.clean2gether.com/uploads/774d4de5_e833_444e_b811_e61b8de0de66_jpg_e6a23db0ce.jpg,,,,,,,,,,,,
44.74822,-0.08855,Blasimon,33540,CC rurales de l'Entre-Deux-Mers,Gironde,https://api.v2.clean2gether.com/uploads/531a0749_0063_4e5a_97db_765f8c9a9ac2_jpg_4392b32b04.jpg,https://api.v2.clean2gether.com/uploads/cc87e91b_c3eb_47cd_bfc6_1a54f8229f46_jpg_3e7888d991.jpg,https://api.v2.clean2gether.com/uploads/2071f065_5b83_4f18_9c06_751a11c6c15c_jpg_56bd4b22fd.jpg,,,,,,,,,,,
46.68205,0.37284,Jaunay-Clan,86130,CU du Grand Poitiers,Vienne,https://api.v2.clean2gether.com/uploads/d182862d_8a8d_4fc7_b13b_288e319285e4_jpg_3cd101fa96.jpg,,,,,,,,,,,,,
44.74901,-0.65234,Canéjan,33610,CC Jalle-Eau-Bourde,Gironde,https://api.v2.clean2gether.com/uploads/111bdb4f_b0b6_4441_9c53_9a66566bdfac_jpg_f63704c9b9.jpg,https://api.v2.clean2gether.com/uploads/15da7606_9121_4857_bc36_1bb562a5d6db_jpg_bc5e9aaa3c.jpg,https://api.v2.clean2gether.com/uploads/479a09e4_8a73_44e9_bb44_56f037e41155_jpg_4406211083.jpg,https://api.v2.clean2gether.com/uploads/cf6ccd26_de69_463a_a04d_0600fd416e6c_jpg_522b80ebe9.jpg,,,,,,,,,,
46.06953,-0.88321,Landrais,17290,CC Aunis Sud,Charente-Maritime,https://api.v2.clean2gether.com/uploads/17782cd0_be1c_4163_a1a6_5e93b7d1ff00_jpg_339c64958a.jpg,,,,,,,,,,,,,
44.74298,-0.61075,Léognan,33850,CC de Montesquieu,Gironde,https://api.v2.clean2gether.com/uploads/09a9d99a_8232_4a96_9a79_4b6b5062d8fb_jpg_dce2bd9268.jpg,,,,,,,,,,,,,
44.93776,-0.65834,Blanquefort,33290,Bordeaux Métropole,Gironde,https://api.v2.clean2gether.com/uploads/792f89f9_de52_48df_b578_7feb9935cd49_jpg_7b7b1b8b38.jpg,,,,,,,,,,,,,
44.68512,-0.99137,Audenge,33980,CA du Bassin d'Arcachon Nord,Gironde,https://api.v2.clean2gether.com/uploads/ff45a52b_7a07_4083_ac55_63d240ef2be4_jpg_8d47ab58ac.jpg,,,,,,,,,,,,,
44.82882,-0.53973,Bordeaux,33100,Bordeaux Métropole,Gironde,https://api.v2.clean2gether.com/uploads/4558fccf_56b7_4c33_b49a_31f561902359_jpg_f8a72a1eaf.jpg,,,,,,,,,,,,,
44.93832,-0.66625,Le Pian-Médoc,33290,CC Médoc Estuaire,Gironde,https://api.v2.clean2gether.com/uploads/fa4769aa_bb44_4729_8b7c_b211e0bb36d0_jpg_f2e0bb214b.jpg,,,,,,,,,,,,,
44.99616,-0.82368,Castelnau-de-Médoc,33480,CC Médullienne,Gironde,https://api.v2.clean2gether.com/uploads/a52162a2_7638_49d1_9066_8ed96a98821e_jpg_24207ee5e7.jpg,,,,,,,,,,,,,
44.74887,-0.1084,Blasimon,33540,CC rurales de l'Entre-Deux-Mers,Gironde,https://api.v2.clean2gether.com/uploads/7884c9d7_0aa3_4140_9733_3cd7cb8fbece_jpg_a8c09a8a53.jpg,https://api.v2.clean2gether.com/uploads/3ed47b18_fb17_4b3c_a599_e915727445d9_jpg_cbf5bf6118.jpg,,,,,,,,,,,,
45.41669,-1.07145,Grayan-et-l'Hôpital,33590,CC Médoc Atlantique,Gironde,https://api.v2.clean2gether.com/uploads/66cee205_8713_4c6f_bbcc_3f41ca888c50_jpg_3912bda684.jpg,,,,,,,,,,,,,
44.73314,-0.21382,Bellebat,33760,CC rurales de l'Entre-Deux-Mers,Gironde,https://api.v2.clean2gether.com/uploads/8_BD_89837_D86_C_4864_A8_C7_5974_E8925731_jpg_b0e298a49a.jpg,https://api.v2.clean2gether.com/uploads/DAF_5_C0_D5_549_E_4670_BBA_2_D536202_E730_D_jpg_9d9cefeed6.jpg,,,,,,,,,,,,
46.61674,0.2724,Migné-Auxances,86580,CU du Grand Poitiers,Vienne,https://api.v2.clean2gether.com/uploads/31a12f5e_2c61_4cba_a8a1_c139767d1e76_jpg_a9083950d8.jpg,,,,,,,,,,,,,
46.18231,-1.17653,L'Houmeau,17137,CA de La Rochelle,Charente-Maritime,https://api.v2.clean2gether.com/uploads/857bf82a_d627_464b_92fb_5c6e8c015037_jpg_b65f3553d6.jpg,,,,,,,,,,,,,
46.0879,-1.01868,Thairé,17290,CA de La Rochelle,Charente-Maritime,https://api.v2.clean2gether.com/uploads/f2a3abc0_e29d_4069_b7f1_8115617d7051_jpg_71ef96119e.jpg,,,,,,,,,,,,,
46.10062,-1.02067,Salles-sur-Mer,17290,CA de La Rochelle,Charente-Maritime,https://api.v2.clean2gether.com/uploads/9998ef81_8dc9_4c73_a48b_12431e6768b4_jpg_78d88110a7.jpg,,,,,,,,,,,,,
46.10288,-0.99136,Croix-Chapeau,17220,CA de La Rochelle,Charente-Maritime,https://api.v2.clean2gether.com/uploads/69205dbd_d3b3_4502_addb_6d77c7795683_jpg_db55788908.jpg,,,,,,,,,,,,,
46.10022,-1.04607,Salles-sur-Mer,17220,CA de La Rochelle,Charente-Maritime,https://api.v2.clean2gether.com/uploads/43ff9125_4c1e_4496_83e7_89bf4e9c38ab_jpg_fff161174b.jpg,,,,,,,,,,,,,
44.89407,-0.26352,Arveyres,33500,CA du Libournais,Gironde,https://api.v2.clean2gether.com/uploads/15ebc718_d5ef_4259_ac1a_078014208e63_jpg_07d954c433.jpg,,,,,,,,,,,,,
44.91446,-0.34292,Izon,33450,CA du Libournais,Gironde,https://api.v2.clean2gether.com/uploads/b4e6bb6e_e888_4014_a89e_0bd83970ca6e_jpg_c4596da65c.jpg,,,,,,,,,,,,,
43.30271,-1.43225,Itxassou,64250,CA du Pays Basque,Pyrénées-Atlantiques,https://api.v2.clean2gether.com/uploads/1_E470_AF_3_EC_80_4_FEC_BD_22_FB_32032_E8092_jpg_9f752481bd.jpg,https://api.v2.clean2gether.com/uploads/CD_1_E143_B_1212_4784_8_DE_2_95_A827_C37734_jpg_e9379e59c7.jpg,https://api.v2.clean2gether.com/uploads/9_EB_5_F4_F2_9_EE_8_4_FFF_8205_991_DD_8978_A66_jpg_b2115a2532.jpg,,,,,,,,,,,
44.71528,-0.64159,Léognan,33850,CC de Montesquieu,Gironde,https://api.v2.clean2gether.com/uploads/c62089b2_66c9_46d6_a58e_7ad2dffdb15e_jpg_ce34235dba.jpg,,,,,,,,,,,,,
44.83552,-0.56287,Bordeaux,33800,Bordeaux Métropole,Gironde,https://api.v2.clean2gether.com/uploads/36754726_80_C2_4206_863_A_010_A5_FDB_0273_jpg_f766e27666.jpg,,,,,,,,,,,,,
44.74695,-0.11243,Blasimon,33540,CC rurales de l'Entre-Deux-Mers,Gironde,https://api.v2.clean2gether.com/uploads/ae2d7426_3662_40c1_a382_63b6e920c59e_jpg_243d02b289.jpg,,,,,,,,,,,,,
44.80704,0.06747,Gensac,33890,CC Castillon/Pujols,Gironde,https://api.v2.clean2gether.com/uploads/437c2486_e170_4503_ad56_e8b4dc37f014_jpg_3d18995f40.jpg,https://api.v2.clean2gether.com/uploads/8e4604cb_eb80_42a8_a9ed_d3f274ec1c26_jpg_f9ba18bde6.jpg,https://api.v2.clean2gether.com/uploads/1f0c1b26_b409_4523_bc85_401e61f41ff6_jpg_30b96070bd.jpg,,,,,,,,,,,
44.93019,-0.66317,Blanquefort,33290,Bordeaux Métropole,Gironde,https://api.v2.clean2gether.com/uploads/4e838d84_7377_4b9f_977c_e0b465506f26_jpg_324d2af8be.jpg,,,,,,,,,,,,,
44.93078,-0.66625,Blanquefort,33290,Bordeaux Métropole,Gironde,https://api.v2.clean2gether.com/uploads/a8b2fce4_505e_40de_bfdb_7ff889f67665_jpg_7fa70ea665.jpg,,,,,,,,,,,,,
44.92436,-0.67656,Le Taillan-Médoc,33320,Bordeaux Métropole,Gironde,https://api.v2.clean2gether.com/uploads/026b4ee4_8d61_4f5c_a05a_d0126540f580_jpg_ff1db92462.jpg,,,,,,,,,,,,,
44.96261,-0.25487,Les Billaux,33500,CA du Libournais,Gironde,https://api.v2.clean2gether.com/uploads/975_A2_FF_7_6985_482_B_B9_DA_54424_D2_EEAAF_jpg_f7f3cfa9bd.jpg,,,,,,,,,,,,,
44.96177,-0.25723,Les Billaux,33500,CA du Libournais,Gironde,https://api.v2.clean2gether.com/uploads/A7_D01_E0_C_45_B3_4846_8554_E674_F4_DE_354_D_jpg_d91b031b57.jpg,,,,,,,,,,,,,
45.74817,-1.09383,Arvert,17530,CA Royan Atlantique,Charente-Maritime,https://api.v2.clean2gether.com/uploads/cf289694_acd8_47a0_813f_3ab9fc3df2e2_jpg_37e4b2eef2.jpg,,,,,,,,,,,,,
44.89535,-0.38352,Saint-Sulpice-et-Cameyrac,33450,CC du Secteur de Saint-Loubès,Gironde,https://api.v2.clean2gether.com/uploads/c596cae0_20cd_4734_bc31_5a2768c62435_jpg_2658590538.jpg,https://api.v2.clean2gether.com/uploads/7df9c2d4_0317_45cf_9eb8_1b68b959e87d_jpg_692d0e685f.jpg,,,,,,,,,,,,
44.95105,-0.52025,Ambarès-et-Lagrave,33440,Bordeaux Métropole,Gironde,https://api.v2.clean2gether.com/uploads/a2f26533_4a27_442f_a0d7_607a7207baf8_jpg_6636057d3a.jpg,https://api.v2.clean2gether.com/uploads/c70222b8_5d89_41b1_9d48_d9e5cad14504_jpg_4c23ad6c7f.jpg,https://api.v2.clean2gether.com/uploads/185eb088_b0d5_4e3f_8c39_7a2a0a03f5d4_jpg_cea9a0cd2a.jpg,https://api.v2.clean2gether.com/uploads/c27de08a_d396_4974_9778_d41c29fee9f7_jpg_d0603246f6.jpg,,,,,,,,,,
44.79777,-1.23065,Lège-Cap-Ferret,33950,CA du Bassin d'Arcachon Nord,Gironde,https://api.v2.clean2gether.com/uploads/BCA_6_F7_F4_27_F4_46_CD_89_BA_CB_0_BD_3_ACE_8_C2_jpg_4a7747ef22.jpg,,,,,,,,,,,,,
43.69858,-1.33201,Tosse,40230,CC Maremne Adour Côte Sud,Landes,https://api.v2.clean2gether.com/uploads/8555a109_c36d_4a67_bae2_e5be9dc1ad36_jpg_706d524832.jpg,,,,,,,,,,,,,
44.7434,-0.61079,Léognan,33850,CC de Montesquieu,Gironde,https://api.v2.clean2gether.com/uploads/d50704dc_420a_4e1a_8eda_9b63ec7d5ca8_jpg_5771c46e50.jpg,https://api.v2.clean2gether.com/uploads/249b9a6b_ed26_4083_a2b3_269e12b254ea_jpg_a7523f90a8.jpg,,,,,,,,,,,,
43.68468,-1.04946,Dax,40100,CA du Grand Dax,Landes,https://api.v2.clean2gether.com/uploads/E83_B42_DD_D818_4_A3_D_9_EB_0_D5_FE_9_FA_3_ABC_4_jpg_8177da4a19.jpg,https://api.v2.clean2gether.com/uploads/18080_B5_C_06_B9_4_B66_886_D_1_D600_F68_B482_jpg_b3bea40213.jpg,,,,,,,,,,,,
45.87979,1.16514,Limoges,87100,CU Limoges Métropole,Haute-Vienne,https://api.v2.clean2gether.com/uploads/b948f237_ffcd_4574_80d3_027ebdb647b7_jpg_12f07a78bd.jpg,,,,,,,,,,,,,
45.48266,-1.08691,Talais,33590,CC Médoc Atlantique,Gironde,https://api.v2.clean2gether.com/uploads/459dbf87_97b1_4f81_9b6e_a9b567b96d53_jpg_d955bbb30c.jpg,https://api.v2.clean2gether.com/uploads/7fe3f0b5_ff24_4cca_b94f_67685c780fb5_jpg_78c8f450be.jpg,,,,,,,,,,,,
44.17119,0.62229,Boé,47550,CA d'Agen,Lot-et-Garonne,https://api.v2.clean2gether.com/uploads/8127_C930_50_C5_4_EEF_9355_9_E5_C0620_E0_C4_jpg_a5ad596450.jpg,,,,,,,,,,,,,
44.17784,0.61208,Le Passage,47520,CA d'Agen,Lot-et-Garonne,https://api.v2.clean2gether.com/uploads/A519_FC_65_407_C_4876_A159_082613_C22190_jpg_dbb9e33e3d.jpg,,,,,,,,,,,,,
44.98018,-0.64049,Le Pian-Médoc,33290,CC Médoc Estuaire,Gironde,https://api.v2.clean2gether.com/uploads/8a621c32_ea7f_465c_96ea_dbc8e18efd22_jpg_cfdb03cbb0.jpg,,,,,,,,,,,,,
45.95728,0.20417,Verteuil-sur-Charente,16510,CC Val de Charente,Charente,https://api.v2.clean2gether.com/uploads/855_F4_A3_F_2_EE_7_40_E1_96_E2_C9_ED_536566_C6_jpg_57dba69683.jpg,https://api.v2.clean2gether.com/uploads/7_FD_26053_3_BC_2_4121_853_B_CAA_997428_D4_D_jpg_d48806b438.jpg,,,,,,,,,,,,
45.65334,-1.0312,Royan,17200,CA Royan Atlantique,Charente-Maritime,https://api.v2.clean2gether.com/uploads/6_CB_76_A9_D_62_BE_41_F0_A0_C8_1_FE_9647_F2_B43_jpg_73591d5b5f.jpg,https://api.v2.clean2gether.com/uploads/F0_EE_0555_57_C8_49_C2_8532_A964_D279_B0_E4_jpg_cf8519df76.jpg,,,,,,,,,,,,
45.24061,-0.30568,Montlieu-la-Garde,17210,CC de la Haute Saintonge,Charente-Maritime,https://api.v2.clean2gether.com/uploads/2b1f82fb_1212_479f_9201_5e045bcf9d27_jpg_4428ac615a.jpg,,,,,,,,,,,,,
44.97098,-0.64829,Le Pian-Médoc,33290,CC Médoc Estuaire,Gironde,https://api.v2.clean2gether.com/uploads/4827c6ee_ca72_4a10_9bcb_73fe477db794_jpg_2ba3a7605c.jpg,,,,,,,,,,,,,
46.06647,-0.99925,Thairé,17290,CA de La Rochelle,Charente-Maritime,https://api.v2.clean2gether.com/uploads/3a8c8370_36f1_4975_839e_27acb7119bbd_jpg_70151e0105.jpg,,,,,,,,,,,,,
45.2002,0.66733,Chancelade,24650,CA Le Grand Périgueux,Dordogne,https://api.v2.clean2gether.com/uploads/79_EE_0_D40_50_F9_4961_8_F43_406_DF_77_D4431_jpg_30d5b2d81f.jpg,,,,,,,,,,,,,
45.2002,0.66733,Chancelade,24650,CA Le Grand Périgueux,Dordogne,https://api.v2.clean2gether.com/uploads/79_EE_0_D40_50_F9_4961_8_F43_406_DF_77_D4431_jpg_088c0d4c5b.jpg,,,,,,,,,,,,,
43.31856,-0.45428,Artiguelouve,64230,CA Pau Béarn Pyrénées,Pyrénées-Atlantiques,https://api.v2.clean2gether.com/uploads/bdac60b2_b9a4_4efa_97e2_f6c703e5d32d_jpg_0adec031de.jpg,,,,,,,,,,,,,
44.78807,-0.5282,Villenave-d'Ornon,33140,Bordeaux Métropole,Gironde,https://api.v2.clean2gether.com/uploads/6c970ad6_9f86_4615_8e40_daa622e7fc94_jpg_177e7fd8cf.jpg,,,,,,,,,,,,,
45.90189,1.27409,Chaptelat,87280,CU Limoges Métropole,Haute-Vienne,https://api.v2.clean2gether.com/uploads/dbbc766f_eac6_4b8c_a3f0_bb6c37aa7566_jpg_0a67a97c3b.jpg,,,,,,,,,,,,,
45.56051,0.91817,Mialet,24450,CC Périgord-Limousin,Dordogne,https://api.v2.clean2gether.com/uploads/8df25cc2_bfe4_40fa_a67a_f6a6882ff1fd_jpg_8315ab8a5c.jpg,,,,,,,,,,,,,
44.70271,-0.60711,Léognan,33850,CC de Montesquieu,Gironde,https://api.v2.clean2gether.com/uploads/9a275fc3_9f82_4660_8ecb_f5b0edab3dbf_jpg_123cda7348.jpg,,,,,,,,,,,,,
44.70249,-0.60752,Léognan,33850,CC de Montesquieu,Gironde,https://api.v2.clean2gether.com/uploads/84ee3945_d736_4eff_8870_6e3fa4de8386_jpg_9fa0dd4587.jpg,,,,,,,,,,,,,
45.92726,-1.33389,Saint-Pierre-d'Oléron,17310,CC de l'Ile d'Oléron,Charente-Maritime,https://api.v2.clean2gether.com/uploads/37a71481_c1f2_410e_81f7_38412633f075_jpg_302d4abf21.jpg,,,,,,,,,,,,,
46.07222,-1.00491,Thairé,17290,CA de La Rochelle,Charente-Maritime,https://api.v2.clean2gether.com/uploads/dcd7a931_bc8e_4361_9f70_d0d6421fe0fe_jpg_955a32961c.jpg,,,,,,,,,,,,,
44.92169,-0.37135,Izon,33450,CA du Libournais,Gironde,https://api.v2.clean2gether.com/uploads/0c1b431f_552a_4108_b3c2_e6cbf754dea9_jpg_cee32a85ed.jpg,,,,,,,,,,,,,
44.78308,-0.09306,Mérignas,33350,CC Castillon/Pujols,Gironde,https://api.v2.clean2gether.com/uploads/1_DC_19707_8650_459_F_90_AF_E13_F22_CD_039_F_jpg_c04f6bb16b.jpg,,,,,,,,,,,,,
44.91537,-0.75898,Saint-Aubin-de-Médoc,33160,Bordeaux Métropole,Gironde,https://api.v2.clean2gether.com/uploads/02eaec7a_8c63_4fc6_b1c2_474394998ce6_jpg_df7b0cd76b.jpg,,,,,,,,,,,,,
46.88979,0.53417,Antran,86100,CA Grand Châtellerault,Vienne,https://api.v2.clean2gether.com/uploads/351233af_f624_4bac_aa1a_dbb1d857559b_jpg_2df3d1affb.jpg,,,,,,,,,,,,,
44.74312,-0.5213,Cadaujac,33140,CC de Montesquieu,Gironde,https://api.v2.clean2gether.com/uploads/75367_DBD_8_D16_4_B22_8329_BCCC_1_CD_41418_jpg_7326fce940.jpg,,,,,,,,,,,,,
45.22223,0.60587,La Chapelle-Gonaguet,24350,CA Le Grand Périgueux,Dordogne,https://api.v2.clean2gether.com/uploads/382_AF_9_C0_87_DC_46_A7_8007_30_B6693_AA_1_DE_jpg_3ea6e4618b.jpg,,,,,,,,,,,,,
44.46964,-0.80979,Belin-Béliet,33830,CC du Val de l'Eyre,Gironde,https://api.v2.clean2gether.com/uploads/539e7fd4_48ca_4486_8720_b4c78ee0553f_jpg_ba4acdfb03.jpg,,,,,,,,,,,,,
45.58225,0.24843,Dirac,16410,CA du Grand Angoulême,Charente,https://api.v2.clean2gether.com/uploads/f1baa928_93b1_4376_843e_d31efd447586_jpg_05a5f1dade.jpg,,,,,,,,,,,,,
45.58727,0.26348,Dirac,16410,CA du Grand Angoulême,Charente,https://api.v2.clean2gether.com/uploads/9b43faa2_5786_41e4_a9f3_bf953d460ad1_jpg_0ab03f5d4b.jpg,,,,,,,,,,,,,
45.25731,2.08214,Saint-Merd-de-Lapleau,19320,CC de Ventadour - Egletons - Monédières,Corrèze,https://api.v2.clean2gether.com/uploads/39_D1668_D_52_CB_4385_9_C51_40_EAB_58_B75_CE_jpg_b761514f4f.jpg,https://api.v2.clean2gether.com/uploads/7_B6_EC_4_BA_B117_4565_AC_32_03_B97_B9_D2_F27_jpg_cd04b14c4f.jpg,https://api.v2.clean2gether.com/uploads/62974_ACC_072_E_42_EF_8371_BC_08_E2_FB_725_E_jpg_98ade6f194.jpg,https://api.v2.clean2gether.com/uploads/27_D26317_921_D_4_FF_3_9_B13_F7_D4_F554710_C_jpg_c5b8b598f9.jpg,,,,,,,,,,
44.20465,-1.22828,Mimizan,40200,CC de Mimizan,Landes,https://api.v2.clean2gether.com/uploads/612ed822_7512_4462_a833_6b7d391e804f_jpg_152b70ae62.jpg,,,,,,,,,,,,,
44.77626,-0.66063,Canéjan,33610,CC Jalle-Eau-Bourde,Gironde,https://api.v2.clean2gether.com/uploads/BC_96_A467_4_F28_41_DA_B2_DF_1_AA_127_F9324_D_jpg_e01ba9cb33.jpg,,,,,,,,,,,,,
44.77492,-0.66104,Canéjan,33610,CC Jalle-Eau-Bourde,Gironde,https://api.v2.clean2gether.com/uploads/BEE_395_C6_0901_412_F_A497_52589370_BA_05_jpg_4d5b0c63af.jpg,,,,,,,,,,,,,
46.63172,0.28467,Migné-Auxances,86440,CU du Grand Poitiers,Vienne,https://api.v2.clean2gether.com/uploads/f40324a2_9f06_42f5_a8ae_0b9814f44494_jpg_fbf26414dd.jpg,,,,,,,,,,,,,
44.83998,-0.33263,Baron,33750,CC du Créonnais,Gironde,https://api.v2.clean2gether.com/uploads/b49281ba_2ef7_4867_bec6_99827f2ace4d_jpg_71b184fb73.jpg,,,,,,,,,,,,,
44.15389,-1.21416,Mimizan,40200,CC de Mimizan,Landes,https://api.v2.clean2gether.com/uploads/244aad2e_9b4e_45f5_b0a2_31ca3cfe46fc_jpg_cf7cf9c1a4.jpg,,,,,,,,,,,,,
44.1997,-1.24128,Mimizan,40200,CC de Mimizan,Landes,https://api.v2.clean2gether.com/uploads/713e1a86_7e49_4a4f_bc3e_2632ff3f9df4_jpg_440fbbc64c.jpg,,,,,,,,,,,,,
46.14639,1.84648,La Chapelle-Taillefert,23000,CA du Grand Guéret,Creuse,https://api.v2.clean2gether.com/uploads/E3_B17835_9_C5_A_4704_9_F69_5724_A45_E2627_jpg_f3696e2b31.jpg,,,,,,,,,,,,,
46.12352,1.86073,Guéret,23000,CA du Grand Guéret,Creuse,https://api.v2.clean2gether.com/uploads/C167_AA_26_7_EC_8_4_D5_E_8276_E592746207_A8_jpg_05a72c5934.jpg,,,,,,,,,,,,,
46.14441,1.86264,Guéret,23000,CA du Grand Guéret,Creuse,https://api.v2.clean2gether.com/uploads/4_E9_C63_B7_2174_475_F_821_A_3_F13_F71_D01_DD_jpg_10a8395a8d.jpg,,,,,,,,,,,,,
46.63162,0.28699,Migné-Auxances,86440,CU du Grand Poitiers,Vienne,https://api.v2.clean2gether.com/uploads/81ec91f2_166d_4628_a5ed_e12bf8418180_jpg_913c778e0d.jpg,,,,,,,,,,,,,
46.62496,0.28819,Migné-Auxances,86440,CU du Grand Poitiers,Vienne,https://api.v2.clean2gether.com/uploads/b2e432fb_fb75_4402_b969_cca1015dc5b5_jpg_be521dfdf3.jpg,,,,,,,,,,,,,
46.62443,0.28873,Migné-Auxances,86440,CU du Grand Poitiers,Vienne,https://api.v2.clean2gether.com/uploads/c0434692_606b_45e2_9018_2fab9698cdb4_jpg_709dc1cde7.jpg,https://api.v2.clean2gether.com/uploads/7819b3e9_a356_41f6_b9cc_0a89d34b90fb_jpg_59f4dbca25.jpg,,,,,,,,,,,,
45.00954,1.08799,Saint-Léon-sur-Vézère,24290,CC de la Vallée de l'Homme,Dordogne,https://api.v2.clean2gether.com/uploads/8ab45393_fe54_4d28_9727_1e94370f4bba_jpg_93354ed35e.jpg,,,,,,,,,,,,,
45.25883,-0.40951,Corignac,17130,CC de la Haute Saintonge,Charente-Maritime,https://api.v2.clean2gether.com/uploads/35d612f3_7949_4aa0_a3f5_dd0b22cb3b3c_jpg_7daf68e126.jpg,,,,,,,,,,,,,
44.73376,-0.21647,Bellebat,33760,CC rurales de l'Entre-Deux-Mers,Gironde,https://api.v2.clean2gether.com/uploads/F15216_AD_38_B1_4625_B764_4032_FE_1_DE_4_F5_jpg_f01d8fbaf5.jpg,,,,,,,,,,,,,
45.29926,-0.11232,Guizengeard,16480,CC des 4B Sud Charente,Charente,https://api.v2.clean2gether.com/uploads/5ff5c648_1fdc_4462_889c_ce3cf9b7258f_jpg_3cf4a64259.jpg,,,,,,,,,,,,,
44.97393,-0.42614,Cubzac-les-Ponts,33240,CC du Grand Cubzaguais,Gironde,https://api.v2.clean2gether.com/uploads/48613_EF_8_4_D33_4_AE_5_85_B5_399_AC_443_C467_jpg_ab3221156b.jpg,,,,,,,,,,,,,
44.67833,-0.57535,Saucats,33650,CC de Montesquieu,Gironde,https://api.v2.clean2gether.com/uploads/d4ea9a4d_45e8_49e3_bf02_fe6bb2421789_jpg_c4c67d5ca1.jpg,,,,,,,,,,,,,
45.24531,-0.46274,Donnezac,33860,CC Latitude Nord Gironde,Gironde,https://api.v2.clean2gether.com/uploads/80683_ABA_F7_F0_4560_BC_24_99_A5_FEF_388_B1_jpg_16129a0dc2.jpg,,,,,,,,,,,,,
44.67814,-0.57498,Saucats,33650,CC de Montesquieu,Gironde,https://api.v2.clean2gether.com/uploads/bd62f733_a1bf_481a_ad8c_a5cc1392ffaa_jpg_014f908388.jpg,https://api.v2.clean2gether.com/uploads/7cbd36e5_06c8_48e3_95a7_0df1553b6329_jpg_e498f41879.jpg,,,,,,,,,,,,
44.89122,-0.71297,Saint-Médard-en-Jalles,33160,Bordeaux Métropole,Gironde,https://api.v2.clean2gether.com/uploads/06_E3_B1_F6_DFD_1_4610_AAB_3_EF_9886_D3_DAF_8_jpg_5847027aae.jpg,,,,,,,,,,,,,
46.15729,-1.08173,Périgny,17180,CA de La Rochelle,Charente-Maritime,https://api.v2.clean2gether.com/uploads/18d03a82_80c5_434a_ad71_a67d700f6511_jpg_0648c6e23d.jpg,,,,,,,,,,,,,
46.17821,-1.01552,Sainte-Soulle,17220,CA de La Rochelle,Charente-Maritime,https://api.v2.clean2gether.com/uploads/05269ed9_d8c8_41d3_9a55_249168b6a961_jpg_0869133090.jpg,,,,,,,,,,,,,
44.94116,-0.47375,Ambarès-et-Lagrave,33440,Bordeaux Métropole,Gironde,https://api.v2.clean2gether.com/uploads/64dedc68_4b21_4f21_ac3c_971f44256087_jpg_224a86fc8c.jpg,,,,,,,,,,,,,
45.01224,-0.39406,Aubie-et-Espessas,33240,CC du Grand Cubzaguais,Gironde,https://api.v2.clean2gether.com/uploads/db519f71_15e1_45ca_adec_cefd2f9e0cca_jpg_a74150986a.jpg,,,,,,,,,,,,,
45.17422,1.58717,Malemort-sur-Corrèze,19360,CA du Bassin de Brive,Corrèze,https://api.v2.clean2gether.com/uploads/58483fc5_b7a7_4378_bbe1_0cbecf885fa1_jpg_ebc77e816c.jpg,,,,,,,,,,,,,
44.84994,-0.74274,Mérignac,33160,Bordeaux Métropole,Gironde,https://api.v2.clean2gether.com/uploads/7aeda4d3_e7d5_417c_880d_74627939ebbc_jpg_b65b9593a8.jpg,,,,,,,,,,,,,
45.24419,-0.47367,Donnezac,33860,CC Latitude Nord Gironde,Gironde,https://api.v2.clean2gether.com/uploads/1_E651_C45_F3_CB_4774_B327_0869_BF_2_C77_C5_jpg_bbc44f2ae7.jpg,,,,,,,,,,,,,
45.24596,-0.46846,Donnezac,33860,CC Latitude Nord Gironde,Gironde,https://api.v2.clean2gether.com/uploads/570_CC_4_BF_7_D9_B_417_E_BDB_4_F4465_A7_E7306_jpg_4d2313a630.jpg,,,,,,,,,,,,,
45.24624,-0.46747,Donnezac,33860,CC Latitude Nord Gironde,Gironde,https://api.v2.clean2gether.com/uploads/0613_D344_5404_4_A5_B_9_EB_6_5773_F569_B632_jpg_f9b596117a.jpg,,,,,,,,,,,,,
44.99032,-0.12119,Les Artigues-de-Lussac,33570,CC du Grand Saint Emilionnais,Gironde,https://api.v2.clean2gether.com/uploads/EC_40657_E_B691_46_CE_8_C52_840_BB_3755029_jpg_957ec2e673.jpg,,,,,,,,,,,,,
44.9577,-0.59694,Parempuyre,33290,Bordeaux Métropole,Gironde,https://api.v2.clean2gether.com/uploads/F4_B89_B82_E98_B_48_BA_9729_00_B20_E42_F521_jpg_852a55010c.jpg,,,,,,,,,,,,,
45.05538,-0.1479,Coutras,33230,CA du Libournais,Gironde,https://api.v2.clean2gether.com/uploads/7fd2883b_3611_4713_b8f8_8f5b4a14dad0_jpg_7306f62937.jpg,,,,,,,,,,,,,
45.62805,0.52583,Varaignes,24360,CC du Périgord Nontronnais,Dordogne,https://api.v2.clean2gether.com/uploads/18f81d84_cadd_4fb2_810a_746d15705146_jpg_22e015c4a8.jpg,https://api.v2.clean2gether.com/uploads/6ecf1c2e_c5a4_481e_b232_5caebeeec4f9_jpg_8ee9dc76d7.jpg,https://api.v2.clean2gether.com/uploads/50764e37_34cd_4663_b162_1c93409cdc07_jpg_788fcc5af9.jpg,https://api.v2.clean2gether.com/uploads/1868aef6_765f_4806_9c83_944025a58e6a_jpg_38860975b7.jpg,https://api.v2.clean2gether.com/uploads/3c3c2c64_0302_428d_88b3_b0f08f456822_jpg_3257a57324.jpg,https://api.v2.clean2gether.com/uploads/beac5fc6_33d4_4209_9fa7_7f99954a22e7_jpg_fd28f72286.jpg,https://api.v2.clean2gether.com/uploads/44b92c3f_b598_4579_827e_de5cdeca090c_jpg_a3115f7b7f.jpg,https://api.v2.clean2gether.com/uploads/d125bdab_2236_48f2_8d8d_80d40b61ee38_jpg_b89522b6b7.jpg,https://api.v2.clean2gether.com/uploads/68ec8080_9c10_4031_8ea7_e5ddd7966459_jpg_c59566527a.jpg,,,,,
44.92795,-0.7472,Saint-Aubin-de-Médoc,33160,Bordeaux Métropole,Gironde,https://api.v2.clean2gether.com/uploads/b80e7faa_96d5_49d8_9fc2_f43cf48cff86_jpg_9672a7e56c.jpg,,,,,,,,,,,,,
45.59652,-0.79106,Thaims,17260,CC de Gémozac et de la Saintonge Viticole,Charente-Maritime,https://api.v2.clean2gether.com/uploads/D1_EEBCC_4_A541_4_F8_D_9391_BE_8_FA_9163_A85_jpg_a30b5e9607.jpg,https://api.v2.clean2gether.com/uploads/A8_F13_FD_4_AE_7_B_4_A1_C_B787_20_A3_F946_CD_73_jpg_fb71fb8c0d.jpg,https://api.v2.clean2gether.com/uploads/A55658_B2_4_A84_4788_95_D2_6631_B89_F6446_jpg_01836ffd8d.jpg,https://api.v2.clean2gether.com/uploads/EE_79_AF_37_AACC_4_A56_A10_D_61153_C9_B6_D48_jpg_badd28adf4.jpg,https://api.v2.clean2gether.com/uploads/F4_E2_E08_A_E65_F_4_C94_BD_20_72897_B9_DA_870_jpg_cba768cb44.jpg,,,,,,,,,
44.85824,-0.33917,Saint-Germain-du-Puch,33750,CA du Libournais,Gironde,https://api.v2.clean2gether.com/uploads/C25_C85_AD_0133_444_C_9_D96_04_C6_AE_9_E3815_jpg_3ebeeb0ca8.jpg,https://api.v2.clean2gether.com/uploads/661_FD_4_BA_96_B2_4_A1_B_AE_78_F0_FFB_3_C00_C21_jpg_6e9777d15a.jpg,,,,,,,,,,,,
45.25598,-0.49795,Marcillac,33860,CC de l'Estuaire,Gironde,https://api.v2.clean2gether.com/uploads/5770_F626_83_F3_4_D19_B61_F_9_E0_CE_881_F739_jpg_81b91949dc.jpg,,,,,,,,,,,,,
44.86222,-0.29873,Nérigean,33750,CA du Libournais,Gironde,https://api.v2.clean2gether.com/uploads/20bdd69e_97ff_49b4_a949_12ab1b2d869c_jpg_9051c1e69a.jpg,,,,,,,,,,,,,
44.86212,-0.2982,Nérigean,33750,CA du Libournais,Gironde,https://api.v2.clean2gether.com/uploads/b4a20d88_1ba5_4562_9495_8dcd7f304553_jpg_3081eefc7b.jpg,,,,,,,,,,,,,
44.96272,-0.62515,Parempuyre,33290,Bordeaux Métropole,Gironde,https://api.v2.clean2gether.com/uploads/38b667ff_bf14_448b_8110_b7a93b451945_jpg_0046a2744f.jpg,,,,,,,,,,,,,
44.9627,-0.62452,Parempuyre,33290,Bordeaux Métropole,Gironde,https://api.v2.clean2gether.com/uploads/dfc33146_7d35_4eb9_b70d_e44317bb02ae_jpg_83e809e9d1.jpg,,,,,,,,,,,,,
45.253,-0.42634,Donnezac,33860,CC Latitude Nord Gironde,Gironde,https://api.v2.clean2gether.com/uploads/4_B69_E07_D_8_FF_6_491_F_8_D01_ABA_9_AE_03_F4_F7_jpg_4fc087d47f.jpg,,,,,,,,,,,,,
45.25801,-0.42979,Donnezac,33860,CC Latitude Nord Gironde,Gironde,https://api.v2.clean2gether.com/uploads/5_CDFF_4_A6_1963_49_A7_B30_E_4_CD_63_B4_B6063_jpg_fd3589dec5.jpg,,,,,,,,,,,,,
44.94252,-0.46279,Saint-Loubès,33450,CC du Secteur de Saint-Loubès,Gironde,https://api.v2.clean2gether.com/uploads/3907_B06_A_0_C28_465_E_9258_03352910_D5_CB_jpg_363bec8043.jpg,,,,,,,,,,,,,
44.88215,-0.31037,Vayres,33870,CA du Libournais,Gironde,https://api.v2.clean2gether.com/uploads/adce83b1_419b_49c3_a9f9_5b25811e1665_jpg_db28e6fe4a.jpg,,,,,,,,,,,,,
45.21716,0.63124,La Chapelle-Gonaguet,24350,CA Le Grand Périgueux,Dordogne,https://api.v2.clean2gether.com/uploads/8_E74045_F_D3_F7_481_A_94_A8_18756896798_F_jpg_a0ce6c418a.jpg,https://api.v2.clean2gether.com/uploads/E39_BF_9_B3_52_B3_4_BDF_87_C4_67_DBD_56_BE_138_jpg_021d94f744.jpg,,,,,,,,,,,,
45.83189,-0.5897,Juicq,17770,CC Vals de Saintonge,Charente-Maritime,https://api.v2.clean2gether.com/uploads/5b6e95de_79df_4fd1_9c61_e7bace29e593_jpg_e37cd91859.jpg,https://api.v2.clean2gether.com/uploads/9ead328f_8414_4ea4_a073_be1e9d5c6bfe_jpg_928fa094e5.jpg,https://api.v2.clean2gether.com/uploads/4ecb6186_7369_45e7_8dd1_139dab9807ba_jpg_38d1e4bfcb.jpg,https://api.v2.clean2gether.com/uploads/b374e275_960d_4f6f_9ab2_ceea9d6205e1_jpg_d695f47b81.jpg,https://api.v2.clean2gether.com/uploads/f54f0911_69c2_46d3_988d_75a16697cd82_jpg_495a61e4e4.jpg,https://api.v2.clean2gether.com/uploads/acd86b1f_831a_4984_837b_43994b0bff39_jpg_da28f66e35.jpg,,,,,,,,
44.95364,-0.24441,Les Billaux,33500,CA du Libournais,Gironde,https://api.v2.clean2gether.com/uploads/9c6d517b_685b_4665_959b_6067c4f1ab8c_jpg_e91ab0d3a1.jpg,,,,,,,,,,,,,
44.33426,0.33469,Nicole,47190,CC du Confluent et des Coteaux de Prayssas,Lot-et-Garonne,https://api.v2.clean2gether.com/uploads/EEF_73231_0_AE_8_4_C34_B557_C4_B34_E153_D20_jpg_6f1f4238a3.jpg,,,,,,,,,,,,,
44.92754,-0.96457,Sainte-Hélène,33680,CC Médullienne,Gironde,https://api.v2.clean2gether.com/uploads/f04ad885_4c31_4ff7_bec7_ffb49a78bf7f_jpg_b065b13121.jpg,,,,,,,,,,,,,
44.74631,-0.65863,Cestas,33610,CC Jalle-Eau-Bourde,Gironde,https://api.v2.clean2gether.com/uploads/d7c096d4_ef34_4493_b7af_0a5dda8ea76b_jpg_0f09bbadd7.jpg,https://api.v2.clean2gether.com/uploads/5da6ca26_87fa_47f5_9706_5917e9f0f166_jpg_37239e1fc4.jpg,,,,,,,,,,,,
44.98046,-0.42089,Saint-André-de-Cubzac,33240,CC du Grand Cubzaguais,Gironde,https://api.v2.clean2gether.com/uploads/AFCD_46_B4_7209_4_B09_9722_4761_C3_F019_E8_jpg_eac202c07f.jpg,https://api.v2.clean2gether.com/uploads/3810_F2_BB_E69_B_4_C5_F_944_F_739_F480_EA_9_FC_jpg_c295bd1122.jpg,,,,,,,,,,,,
45.74717,0.6048,Le Lindois,16310,CC de Charente Limousine,Charente,https://api.v2.clean2gether.com/uploads/c4171a0d_1da4_4c4a_9dc9_41a58a554787_jpg_f84aae985f.jpg,,,,,,,,,,,,,
45.71484,0.18134,Champniers,16430,CA du Grand Angoulême,Charente,https://api.v2.clean2gether.com/uploads/040_CE_001_B830_4_C3_E_A945_4_EBB_8292_E04_C_jpg_12d7b21290.jpg,,,,,,,,,,,,,
45.07678,-0.35165,Marcenais,33620,CC Latitude Nord Gironde,Gironde,https://api.v2.clean2gether.com/uploads/96_E7_C477_CDFE_4775_9422_A7_AAAA_9_BE_949_jpg_30ff9c9d6f.jpg,https://api.v2.clean2gether.com/uploads/C39_DA_6_C3_FC_99_4_F1_F_8397_5672874946_F3_jpg_133294af03.jpg,,,,,,,,,,,,
45.21204,-0.80994,Saint-Sauveur,33250,CC Médoc Coeur de Presqu'île,Gironde,https://api.v2.clean2gether.com/uploads/be3bbcbd_6241_42c9_902c_92774898cd6c_jpg_833875cdb0.jpg,,,,,,,,,,,,,
45.09202,-0.3654,Laruscade,33620,CC Latitude Nord Gironde,Gironde,https://api.v2.clean2gether.com/uploads/172_E73_FF_B81_A_46_F9_BAAB_FD_40357554_AB_jpg_4691c62049.jpg,https://api.v2.clean2gether.com/uploads/ACC_310_FF_D1_A6_4579_B409_55_AEA_0_EDADDD_jpg_d78aca9258.jpg,https://api.v2.clean2gether.com/uploads/C82_F2_A7_E_BED_2_49_D6_9_B2_A_50_F175_E38436_jpg_452dd1f6a0.jpg,https://api.v2.clean2gether.com/uploads/C76840_F0_650_C_457_D_8786_9_DF_3_D8_DF_788_E_jpg_e8883d26d8.jpg,https://api.v2.clean2gether.com/uploads/8_F05_EDCD_77_DA_44_AD_ACD_1_6_B78_C20_C7_F26_jpg_907783340a.jpg,https://api.v2.clean2gether.com/uploads/8599_E531_3_D5_A_48_B6_A0_B8_5056510_F8_D90_jpg_5f7deeab53.jpg,,,,,,,,
45.58939,-0.96388,Meschers-sur-Gironde,17132,CA Royan Atlantique,Charente-Maritime,https://api.v2.clean2gether.com/uploads/64ba5113_06ee_44a5_9bc0_350cf9f7a56d_jpg_dbc0c03499.jpg,,,,,,,,,,,,,
44.90572,-0.5221,Bassens,33530,Bordeaux Métropole,Gironde,https://api.v2.clean2gether.com/uploads/969a079e_1d81_4db0_a8bd_d985febac84e_jpg_721631981e.jpg,,,,,,,,,,,,,
44.90445,-0.52221,Bassens,33530,Bordeaux Métropole,Gironde,https://api.v2.clean2gether.com/uploads/3febc6e2_8ec7_4c39_9350_5030feb423ea_jpg_c0ec79a0df.jpg,,,,,,,,,,,,,
45.64715,-1.11063,Saint-Palais-sur-Mer,17420,CA Royan Atlantique,Charente-Maritime,https://api.v2.clean2gether.com/uploads/310d1316_bc66_485a_b275_38b797814fea_jpg_fce7339332.jpg,,,,,,,,,,,,,
44.79429,-0.5536,Bègles,33130,Bordeaux Métropole,Gironde,https://api.v2.clean2gether.com/uploads/946fa780_a0b4_478d_bcd7_fd0cb754a5d5_jpg_56705f3e59.jpg,https://api.v2.clean2gether.com/uploads/6e2cff44_29bb_4e63_a503_091ab09e94aa_jpg_20bcc19cd3.jpg,,,,,,,,,,,,
45.09925,-0.09565,Chamadelle,33230,CA du Libournais,Gironde,https://api.v2.clean2gether.com/uploads/1837_BC_8_E_7_CDC_43_A3_8695_D5211_A4_B8_F86_jpg_a0c0fd9a96.jpg,,,,,,,,,,,,,
44.77277,-0.58261,Villenave-d'Ornon,33140,Bordeaux Métropole,Gironde,https://api.v2.clean2gether.com/uploads/6d56e282_d787_411a_93ab_54af556e5ccc_jpg_728f78d3da.jpg,,,,,,,,,,,,,
44.94157,-0.40561,Saint-Loubès,33450,CC du Secteur de Saint-Loubès,Gironde,https://api.v2.clean2gether.com/uploads/E154_B5_BA_8550_42_EA_976_F_65322_F935_C84_jpg_b2e8cf9690.jpg,,,,,,,,,,,,,
44.75985,-0.60072,Gradignan,33170,Bordeaux Métropole,Gironde,https://api.v2.clean2gether.com/uploads/4441008_F_C1_C9_4678_B2_B6_449_B3_DE_95_F4_D_jpg_bca9423659.jpg,,,,,,,,,,,,,
45.1892,0.72757,Trélissac,24000,CA Le Grand Périgueux,Dordogne,https://api.v2.clean2gether.com/uploads/050_DB_465_B5_CA_4_C24_B9_AD_F74_DD_4_FB_0_A10_jpg_6edf3acf5c.jpg,,,,,,,,,,,,,
45.10662,-0.07163,Chamadelle,17360,CA du Libournais,Gironde,https://api.v2.clean2gether.com/uploads/6_A8_FD_8_DC_3002_4_B32_A76_E_FC_519234913_E_jpg_ffd4c8493b.jpg,https://api.v2.clean2gether.com/uploads/47_D052_DE_800_D_4306_91_F6_EFF_80_E0_D17_AA_jpg_b813db57d9.jpg,,,,,,,,,,,,
45.1795,1.11266,Saint-Rabier,24210,CC du Terrassonnais en Périgord Noir Thenon Hautefort,Dordogne,https://api.v2.clean2gether.com/uploads/5c444f9c_3408_4147_97b2_aad3e38e33c2_jpg_475b9c3262.jpg,,,,,,,,,,,,,
45.03722,-0.72295,Soussans,33460,CC Médoc Estuaire,Gironde,https://api.v2.clean2gether.com/uploads/9d2323b5_fc40_46d9_9253_9569938684a7_jpg_7db5638451.jpg,,,,,,,,,,,,,
46.16012,1.79273,La Brionne,23000,CA du Grand Guéret,Creuse,https://api.v2.clean2gether.com/uploads/38a10e71_17ac_4b70_a9ad_e9d730607965_jpg_bea1b04218.jpg,https://api.v2.clean2gether.com/uploads/dc71e51c_ab24_4ccf_9070_4795266ad33b_jpg_bea8c58ea5.jpg,https://api.v2.clean2gether.com/uploads/e341fcd2_14a4_45e7_a7a3_196686301723_jpg_43c97ae91b.jpg,,,,,,,,,,,
44.85235,-0.72984,Saint-Médard-en-Jalles,33160,Bordeaux Métropole,Gironde,https://api.v2.clean2gether.com/uploads/a8881ea5_c3ea_4087_976b_9bba241e65a0_jpg_7b53b50b16.jpg,,,,,,,,,,,,,
44.67973,-0.57127,La Brède,33650,CC de Montesquieu,Gironde,https://api.v2.clean2gether.com/uploads/46_DFAEEC_3_C18_42_A3_B5_BA_778138_BFBB_43_jpg_f0e711ae11.jpg,,,,,,,,,,,,,
44.68395,-0.55936,La Brède,33650,CC de Montesquieu,Gironde,https://api.v2.clean2gether.com/uploads/37052722_8_B01_4537_AF_6_D_8_C41_C913870_B_jpg_30c365124e.jpg,,,,,,,,,,,,,
44.77116,-0.15358,Jugazan,33420,CC Castillon/Pujols,Gironde,https://api.v2.clean2gether.com/uploads/69_D3218_A_1_C65_45_F6_A48_A_EA_621099_AD_7_C_jpg_3d7db3b026.jpg,,,,,,,,,,,,,
44.76209,-0.60199,Gradignan,33170,Bordeaux Métropole,Gironde,https://api.v2.clean2gether.com/uploads/d7f7b7ce_6011_40dc_b9a5_fccb18ff6774_jpg_1401e1741c.jpg,https://api.v2.clean2gether.com/uploads/6419036e_8c75_4a9c_9b99_198d465298aa_jpg_124112a112.jpg,https://api.v2.clean2gether.com/uploads/06ade3ff_2b19_4fbc_85a3_595e6ed2664d_jpg_c58e259986.jpg,,,,,,,,,,,
46.19086,1.95094,Ajain,23380,CA du Grand Guéret,Creuse,https://api.v2.clean2gether.com/uploads/29d70dd1_a672_4c6d_a3c2_e03174d9c482_jpg_fdc3382064.jpg,,,,,,,,,,,,,
44.89216,-0.71373,Saint-Médard-en-Jalles,33160,Bordeaux Métropole,Gironde,https://api.v2.clean2gether.com/uploads/large_3470_0c788bc48f_png_1973341_a1eef79e40.5,,,,,,,,,,,,,
44.68007,-0.57225,La Brède,33650,CC de Montesquieu,Gironde,https://api.v2.clean2gether.com/uploads/F3_AF_8539_9_EAB_4361_90_D8_A57_D4_E2_A6081_jpg_da9b9c7e31.jpg,https://api.v2.clean2gether.com/uploads/33_C648_EA_5097_46_F0_9718_8745_FA_57_BAC_4_jpg_a4dfd923f3.jpg,https://api.v2.clean2gether.com/uploads/8_B4_E1780_847_F_4_AAB_B93_E_4_F771_A339_C8_F_jpg_1fc0a9a487.jpg,,,,,,,,,,,
44.68083,-0.88682,Biganos,33380,CA du Bassin d'Arcachon Nord,Gironde,https://api.v2.clean2gether.com/uploads/fc957170_0a09_4586_a532_e52fc09e0c91_jpg_9cf6e3a75d.jpg,,,,,,,,,,,,,
44.91177,-0.34987,Izon,33450,CA du Libournais,Gironde,https://api.v2.clean2gether.com/uploads/2b947457_3508_4a70_af5a_f769f580e9b4_jpg_f536c020aa.jpg,,,,,,,,,,,,,
44.8501,-0.72876,Saint-Médard-en-Jalles,33160,Bordeaux Métropole,Gironde,https://api.v2.clean2gether.com/uploads/8b53f079_64ae_4cff_bb95_0a440e87de02_jpg_f4f396f12f.jpg,,,,,,,,,,,,,
44.90706,-0.68878,Le Taillan-Médoc,33320,Bordeaux Métropole,Gironde,https://api.v2.clean2gether.com/uploads/754de5ee_9f1e_4c96_8768_e7b34af92ae9_jpg_4bf5c4e25f.jpg,,,,,,,,,,,,,
45.14089,-0.00139,La Roche-Chalais,24490,CC du Pays de Saint Aulaye,Dordogne,https://api.v2.clean2gether.com/uploads/8b846d75_35d6_4a36_bf4c_7c80dcd35b3f_jpg_24c920211a.jpg,,,,,,,,,,,,,
45.40647,0.09852,Courgeac,16190,CC Lavalette Tude Dronne,Charente,https://api.v2.clean2gether.com/uploads/b29488c7_2867_44c1_9725_26953e18d001_jpg_bc31ca19e8.jpg,,,,,,,,,,,,,
44.70137,-1.04962,Lanton,,CA du Bassin d'Arcachon Nord,Gironde,https://api.v2.clean2gether.com/uploads/51269967_FE_62_4_DC_4_9_C7_B_A7792_C65_F37_C_jpg_08468d50ae.jpg,,,,,,,,,,,,,
